$GNGGA,062426.000,0832.0956,N,07659.6709,E,2,17,0.6,47.6,M,-88.1,M,,0000*5A
$GNGLL,0832.0956,N,07659.6709,E,062426.000,A,D*40
$GNGSA,A,3,02,06,17,19,28,24,15,05,12,13,25,,1.1,0.6,0.9,1*3F
$GNGSA,A,3,02,03,04,05,06,07,,,,,,,1.1,0.6,0.9,4*3A
$GPGSV,4,1,13,05,68,155,47,40,63,250,43,12,44,336,48,02,44,351,45,1*66
$GPGSV,4,2,13,24,32,247,33,19,19,063,28,06,16,029,48,13,14,171,30,1*6C
$GPGSV,4,3,13,17,13,076,38,28,11,139,36,15,07,204,27,25,06,326,32,1*6C
$GPGSV,4,4,13,41,00,000,50,1*56
$GIGSV,2,1,07,03,76,151,47,02,65,259,43,05,52,062,50,04,41,135,45,4*74
$GIGSV,2,2,07,06,38,261,39,07,29,100,45,01,00,000,44,4*40
$GNRMC,062426.000,A,0832.0956,N,07659.6709,E,000.0,000.0,260719,,,D*7C
$GNVTG,000.0,T,,M,000.0,N,000.0,K,D*16
$GNZDA,062426.000,26,07,2019,00,00*45
$GNGGA,062427.000,0832.0956,N,07659.6709,E,2,17,0.6,47.6,M,-88.1,M,,0000*5B
$GNGLL,0832.0956,N,07659.6709,E,062427.000,A,D*41
$GNGSA,A,3,02,06,17,19,28,24,15,05,12,13,25,,1.1,0.6,0.9,1*3F
$GNGSA,A,3,02,03,04,05,06,07,,,,,,,1.1,0.6,0.9,4*3A
$GNRMC,062427.000,A,0832.0956,N,07659.6709,E,000.0,000.0,260719,,,D*7D
$GNVTG,000.0,T,,M,000.0,N,000.0,K,D*16
$GNZDA,062427.000,26,07,2019,00,00*44
$GNGGA,062428.000,0832.0956,N,07659.6709,E,2,17,0.6,47.6,M,-88.1,M,,0000*54
$GNGLL,0832.0956,N,07659.6709,E,062428.000,A,D*4E
$GNGSA,A,3,02,06,17,19,28,24,15,05,12,13,25,,1.1,0.6,0.9,1*3F
$GNGSA,A,3,02,03,04,05,06,07,,,,,,,1.1,0.6,0.9,4*3A
$GNRMC,062428.000,A,0832.0956,N,07659.6709,E,000.0,000.0,260719,,,D*72
$GNVTG,000.0,T,,M,000.0,N,000.0,K,D*16
$GNZDA,062428.000,26,07,2019,00,00*4B
$GNGGA,062429.000,0832.0956,N,07659.6709,E,2,17,0.6,47.6,M,-88.1,M,,0000*55
$GNGLL,0832.0956,N,07659.6709,E,062429.000,A,D*4F
$GNGSA,A,3,02,06,17,19,28,24,15,05,12,13,25,,1.1,0.6,0.9,1*3F
$GNGSA,A,3,02,03,04,05,06,07,,,,,,,1.1,0.6,0.9,4*3A
$GPGSV,4,1,13,05,68,155,47,40,63,250,43,12,44,336,48,02,44,351,46,1*65
$GPGSV,4,2,13,24,32,247,34,19,19,063,28,06,16,029,48,13,14,171,31,1*6A
$GPGSV,4,3,13,17,13,076,38,28,11,139,36,15,07,204,28,25,06,326,33,1*62
$GPGSV,4,4,13,41,00,000,50,1*56
$GIGSV,2,1,07,03,76,151,48,02,65,259,43,05,52,062,49,04,40,135,45,4*72
$GIGSV,2,2,07,06,38,261,39,07,29,100,45,01,00,000,44,4*40
$GNRMC,062429.000,A,0832.0956,N,07659.6709,E,000.0,000.0,260719,,,D*73
$GNVTG,000.0,T,,M,000.0,N,000.0,K,D*16
$GNZDA,062429.000,26,07,2019,00,00*4A
$PIRNSF,7,4,8B,4A,12,19,AF,FF,6F,F7,00,12,69,8A,03,F8,97,12,1F,DF,04,2B,46,98,A0,3D,00,00,00,00,00,00,00,00,1D,0D,48,DC,0*06
$PIRNSF,3,4,8B,4A,12,18,B6,97,81,86,F9,09,E3,32,EF,57,9F,6F,FA,C7,08,20,D4,00,44,4B,D7,69,2B,C2,25,FC,00,00,0D,20,74,38,0*02
$PIRNSF,2,4,8B,4A,12,18,50,18,34,5D,A2,ED,19,68,BF,43,FA,12,D0,76,83,B8,07,C1,CE,35,69,6B,48,DA,36,D1,30,00,08,02,42,48,0*76
$PIRNSF,5,4,8B,4A,12,18,75,55,55,55,55,55,55,55,55,55,55,55,55,55,55,55,55,55,55,55,55,55,55,55,55,55,55,55,14,6D,7B,94,0*05
$PIRNSF,4,4,8B,4A,12,18,50,19,34,4B,82,AB,16,D0,C6,C6,98,37,D1,8E,8D,34,6D,A3,BD,17,60,C3,06,B8,37,C1,D0,00,10,DA,96,1C,1*09
$GNGGA,062430.000,0832.0956,N,07659.6709,E,2,17,0.6,47.6,M,-88.1,M,,0000*5D
$GNGLL,0832.0956,N,07659.6709,E,062430.000,A,D*47
$GNGSA,A,3,02,06,17,19,28,24,15,05,12,13,25,,1.1,0.6,0.9,1*3F
$GNGSA,A,3,02,03,04,05,06,07,,,,,,,1.1,0.6,0.9,4*3A
$GNRMC,062430.000,A,0832.0956,N,07659.6709,E,000.0,000.0,260719,,,D*7B
$GNVTG,000.0,T,,M,000.0,N,000.0,K,D*16
$GNZDA,062430.000,26,07,2019,00,00*42
$PIRNSF,1,4,8B,4A,12,79,45,55,55,55,55,55,55,55,55,55,55,55,55,55,55,55,55,55,55,55,55,55,55,55,55,55,55,55,04,D5,F0,5C,0*7F
$PIRNSF,6,4,8B,4A,12,18,50,18,74,3B,A2,4D,0E,68,C3,87,1A,56,D2,8E,91,B0,73,82,FD,15,68,C7,46,9A,3E,D2,50,00,18,92,B1,30,0*0F
$GNGGA,062431.000,0832.0956,N,07659.6709,E,2,17,0.6,47.6,M,-88.1,M,,0000*5C
$GNGLL,0832.0956,N,07659.6709,E,062431.000,A,D*46
$GNGSA,A,3,02,06,17,19,28,24,15,05,12,13,25,,1.1,0.6,0.9,1*3F
$GNGSA,A,3,02,03,04,05,06,07,,,,,,,1.1,0.6,0.9,4*3A
$GNRMC,062431.000,A,0832.0956,N,07659.6709,E,000.0,000.0,260719,,,D*7A
$GNVTG,000.0,T,,M,000.0,N,000.0,K,D*16
$GNZDA,062431.000,26,07,2019,00,00*43
$GNGGA,062432.000,0832.0956,N,07659.6709,E,2,17,0.6,47.6,M,-88.1,M,,0000*5F
$GNGLL,0832.0956,N,07659.6709,E,062432.000,A,D*45
$GNGSA,A,3,02,06,17,19,28,24,15,05,12,13,25,,1.1,0.6,0.9,1*3F
$GNGSA,A,3,02,03,04,05,06,07,,,,,,,1.1,0.6,0.9,4*3A
$GPGSV,4,1,13,05,68,155,47,40,63,250,43,12,44,336,48,02,44,351,46,1*65
$GPGSV,4,2,13,24,32,247,34,19,19,063,28,06,16,029,48,13,14,171,31,1*6A
$GPGSV,4,3,13,17,13,076,38,28,11,139,36,15,07,204,27,25,06,326,32,1*6C
$GPGSV,4,4,13,41,00,000,50,1*56
$GIGSV,2,1,07,03,76,151,48,02,65,259,44,05,52,062,50,04,40,135,45,4*7D
$GIGSV,2,2,07,06,38,261,40,07,29,100,45,01,00,000,44,4*4E
$GNRMC,062432.000,A,0832.0956,N,07659.6709,E,000.0,000.0,260719,,,D*79
$GNVTG,000.0,T,,M,000.0,N,000.0,K,D*16
$GNZDA,062432.000,26,07,2019,00,00*40
$GNGGA,062433.000,0832.0956,N,07659.6709,E,2,17,0.6,47.6,M,-88.1,M,,0000*5E
$GNGLL,0832.0956,N,07659.6709,E,062433.000,A,D*44
$GNGSA,A,3,02,06,17,19,28,24,15,05,12,13,25,,1.1,0.6,0.9,1*3F
$GNGSA,A,3,02,03,04,05,06,07,,,,,,,1.1,0.6,0.9,4*3A
$GNRMC,062433.000,A,0832.0956,N,07659.6709,E,000.0,000.0,260719,,,D*78
$GNVTG,000.0,T,,M,000.0,N,000.0,K,D*16
$GNZDA,062433.000,26,07,2019,00,00*41
$GNGGA,062434.000,0832.0956,N,07659.6709,E,2,17,0.6,47.6,M,-88.1,M,,0000*59
$GNGLL,0832.0956,N,07659.6709,E,062434.000,A,D*43
$GNGSA,A,3,02,06,17,19,28,24,15,05,12,13,25,,1.1,0.6,0.9,1*3F
$GNGSA,A,3,02,03,04,05,06,07,,,,,,,1.1,0.6,0.9,4*3A
$GNRMC,062434.000,A,0832.0956,N,07659.6709,E,000.0,000.0,260719,,,D*7F
$GNVTG,000.0,T,,M,000.0,N,000.0,K,D*16
$GNZDA,062434.000,26,07,2019,00,00*46
$GNGGA,062435.000,0832.0956,N,07659.6709,E,2,17,0.6,47.6,M,-88.1,M,,0000*58
$GNGLL,0832.0956,N,07659.6709,E,062435.000,A,D*42
$GNGSA,A,3,02,06,17,19,28,24,15,05,12,13,25,,1.1,0.6,0.9,1*3F
$GNGSA,A,3,02,03,04,05,06,07,,,,,,,1.1,0.6,0.9,4*3A
$GPGSV,4,1,13,05,68,155,47,40,63,250,43,12,44,336,48,02,44,351,46,1*65
$GPGSV,4,2,13,24,32,247,34,19,19,063,25,06,16,029,48,13,14,171,32,1*64
$GPGSV,4,3,13,17,13,076,37,28,11,139,37,15,08,204,28,25,06,326,34,1*64
$GPGSV,4,4,13,41,00,000,50,1*56
$GIGSV,2,1,07,03,76,151,47,02,65,259,43,05,52,062,49,04,40,135,45,4*7D
$GIGSV,2,2,07,06,38,261,39,07,29,100,45,01,00,000,43,4*47
$GNRMC,062435.000,A,0832.0956,N,07659.6709,E,000.0,000.0,260719,,,D*7E
$GNVTG,000.0,T,,M,000.0,N,000.0,K,D*16
$GNZDA,062435.000,26,07,2019,00,00*47
$GNGGA,062436.000,0832.0956,N,07659.6709,E,2,17,0.6,47.6,M,-88.1,M,,0000*5B
$GNGLL,0832.0956,N,07659.6709,E,062436.000,A,D*41
$GNGSA,A,3,02,06,17,19,28,24,15,05,12,13,25,,1.1,0.6,0.9,1*3F
$GNGSA,A,3,02,03,04,05,06,07,,,,,,,1.1,0.6,0.9,4*3A
$GNRMC,062436.000,A,0832.0956,N,07659.6709,E,000.0,000.0,260719,,,D*7D
$GNVTG,000.0,T,,M,000.0,N,000.0,K,D*16
$GNZDA,062436.000,26,07,2019,00,00*44
$GNGGA,062437.000,0832.0956,N,07659.6709,E,2,17,0.6,47.6,M,-88.1,M,,0000*5A
$GNGLL,0832.0956,N,07659.6709,E,062437.000,A,D*40
$GNGSA,A,3,02,06,17,19,28,24,15,05,12,13,25,,1.1,0.6,0.9,1*3F
$GNGSA,A,3,02,03,04,05,06,07,,,,,,,1.1,0.6,0.9,4*3A
$GNRMC,062437.000,A,0832.0956,N,07659.6709,E,000.0,000.0,260719,,,D*7C
$GNVTG,000.0,T,,M,000.0,N,000.0,K,D*16
$GNZDA,062437.000,26,07,2019,00,00*45
$GNGGA,062438.000,0832.0956,N,07659.6709,E,2,17,0.6,47.6,M,-88.1,M,,0000*55
$GNGLL,0832.0956,N,07659.6709,E,062438.000,A,D*4F
$GNGSA,A,3,02,06,17,19,28,24,15,05,12,13,25,,1.1,0.6,0.9,1*3F
$GNGSA,A,3,02,03,04,05,06,07,,,,,,,1.1,0.6,0.9,4*3A
$GPGSV,4,1,13,05,68,155,48,40,63,250,43,12,44,336,48,02,44,351,46,1*6A
$GPGSV,4,2,13,24,32,247,32,19,19,063,25,06,16,029,48,13,14,171,31,1*61
$GPGSV,4,3,13,17,13,076,38,28,11,139,37,15,08,204,27,25,06,326,33,1*63
$GPGSV,4,4,13,41,00,000,49,1*5E
$GIGSV,2,1,07,03,76,151,47,02,65,259,43,05,52,062,49,04,40,135,45,4*7D
$GIGSV,2,2,07,06,38,261,39,07,29,100,44,01,00,000,43,4*46
$GNRMC,062438.000,A,0832.0956,N,07659.6709,E,000.0,000.0,260719,,,D*73
$GNVTG,000.0,T,,M,000.0,N,000.0,K,D*16
$GNZDA,062438.000,26,07,2019,00,00*4A
$GNGGA,062439.000,0832.0956,N,07659.6709,E,2,17,0.6,47.6,M,-88.1,M,,0000*54
$GNGLL,0832.0956,N,07659.6709,E,062439.000,A,D*4E
$GNGSA,A,3,02,06,17,19,28,24,15,05,12,13,25,,1.1,0.6,0.9,1*3F
$GNGSA,A,3,02,03,04,05,06,07,,,,,,,1.1,0.6,0.9,4*3A
$GNRMC,062439.000,A,0832.0956,N,07659.6709,E,000.0,000.0,260719,,,D*72
$GNVTG,000.0,T,,M,000.0,N,000.0,K,D*16
$GNZDA,062439.000,26,07,2019,00,00*4B
$GNGGA,062440.000,0832.0956,N,07659.6709,E,2,17,0.6,47.6,M,-88.1,M,,0000*5A
$GNGLL,0832.0956,N,07659.6709,E,062440.000,A,D*40
$GNGSA,A,3,02,06,17,19,28,24,15,05,12,13,25,,1.1,0.6,0.9,1*3F
$GNGSA,A,3,02,03,04,05,06,07,,,,,,,1.1,0.6,0.9,4*3A
$GNRMC,062440.000,A,0832.0956,N,07659.6709,E,000.0,000.0,260719,,,D*7C
$GNVTG,000.0,T,,M,000.0,N,000.0,K,D*16
$GNZDA,062440.000,26,07,2019,00,00*45
$GNGGA,062441.000,0832.0956,N,07659.6709,E,2,17,0.6,47.6,M,-88.1,M,,0000*5B
$GNGLL,0832.0956,N,07659.6709,E,062441.000,A,D*41
$GNGSA,A,3,02,06,17,19,28,24,15,05,12,13,25,,1.1,0.6,0.9,1*3F
$GNGSA,A,3,02,03,04,05,06,07,,,,,,,1.1,0.6,0.9,4*3A
$GPGSV,4,1,13,05,68,155,47,40,63,250,42,12,44,336,47,02,44,351,45,1*68
$GPGSV,4,2,13,24,32,247,32,19,19,063,25,06,16,029,47,13,14,171,30,1*6F
$GPGSV,4,3,13,17,13,076,37,28,11,139,38,15,08,204,27,25,06,326,31,1*61
$GPGSV,4,4,13,41,00,000,49,1*5E
$GIGSV,2,1,07,03,76,151,47,02,65,259,43,05,52,062,49,04,40,135,45,4*7D
$GIGSV,2,2,07,06,38,261,39,07,29,100,44,01,00,000,43,4*46
$GNRMC,062441.000,A,0832.0956,N,07659.6709,E,000.0,000.0,260719,,,D*7D
$GNVTG,000.0,T,,M,000.0,N,000.0,K,D*16
$GNZDA,062441.000,26,07,2019,00,00*44
$PIRNSF,6,1,8B,4A,12,80,0F,2A,6C,E8,07,C0,00,1B,C3,3F,00,12,1E,BA,F8,C0,D0,03,B5,40,00,FF,F3,C9,F2,30,6B,A6,D2,2B,6E,B8,0*09
$PIRNSF,7,1,8B,4A,12,80,0F,16,10,3C,15,0C,00,1B,C3,3F,40,16,DF,BA,F8,C0,AC,E2,5E,C0,01,80,11,DE,70,26,9F,C4,82,D0,8A,D8,0*0E
$PIRNSF,3,1,8B,4A,12,80,0F,DD,06,C3,F4,A4,00,5B,AF,BF,40,30,09,03,F8,CE,CA,C2,8B,00,14,80,24,DA,89,BB,FF,CE,01,53,5A,04,0*7B
$GNGGA,062442.000,0832.0956,N,07659.6709,E,2,17,0.6,47.6,M,-88.1,M,,0000*58
$GNGLL,0832.0956,N,07659.6709,E,062442.000,A,D*42
$GNGSA,A,3,02,06,17,19,28,24,15,05,12,13,25,,1.1,0.6,0.9,1*3F
$GNGSA,A,3,02,03,04,05,06,07,,,,,,,1.1,0.6,0.9,4*3A
$GNRMC,062442.000,A,0832.0956,N,07659.6709,E,000.0,000.0,260719,,,D*7E
$GNVTG,000.0,T,,M,000.0,N,000.0,K,D*16
$GNZDA,062442.000,26,07,2019,00,00*47
$PIRNSF,2,1,8B,4A,12,80,0F,F5,C2,3F,FB,60,00,1B,C3,3F,00,08,F8,BA,F8,C2,2D,9E,D3,80,03,7F,D6,1D,1C,7F,8B,E9,62,8E,1E,18,0*05
$PIRNSF,5,1,8B,4A,12,80,0F,19,02,44,0E,4C,00,5B,C3,3F,C0,0A,14,BA,F8,C0,88,E0,A1,80,18,80,34,02,78,1D,00,6C,31,EF,3B,90,0*76
$PIRNSF,4,1,8B,4A,12,80,0F,17,83,CC,00,20,00,1B,AF,BF,40,09,81,03,F8,C1,A3,9F,60,40,12,FF,FF,12,D4,5E,43,DB,A2,ED,58,2C,0*0F
$PIRNSF,1,4,8B,4A,12,F9,45,55,55,55,55,55,55,55,55,55,55,55,55,55,55,55,55,55,55,55,55,55,55,55,55,55,55,55,06,9F,F0,5C,0*02
$GNGGA,062443.000,0832.0956,N,07659.6709,E,2,17,0.6,47.6,M,-88.1,M,,0000*59
$GNGLL,0832.0956,N,07659.6709,E,062443.000,A,D*43
$GNGSA,A,3,02,06,17,19,28,24,15,05,12,13,25,,1.1,0.6,0.9,1*3F
$GNGSA,A,3,02,03,04,05,06,07,,,,,,,1.1,0.6,0.9,4*3A
$GNRMC,062443.000,A,0832.0956,N,07659.6709,E,000.0,000.0,260719,,,D*7F
$GNVTG,000.0,T,,M,000.0,N,000.0,K,D*16
$GNZDA,062443.000,26,07,2019,00,00*46
$GNGGA,062444.000,0832.0956,N,07659.6709,E,2,17,0.6,47.6,M,-88.1,M,,0000*5E
$GNGLL,0832.0956,N,07659.6709,E,062444.000,A,D*44
$GNGSA,A,3,02,06,17,19,28,24,15,05,12,13,25,,1.1,0.6,0.9,1*3F
$GNGSA,A,3,02,03,04,05,06,07,,,,,,,1.1,0.6,0.9,4*3A
$GPGSV,4,1,13,05,68,155,47,40,63,250,42,12,44,336,47,02,44,351,45,1*68
$GPGSV,4,2,13,24,32,247,32,19,19,063,24,06,16,029,47,13,14,171,30,1*6E
$GPGSV,4,3,13,17,13,076,37,28,11,139,37,15,08,204,25,25,07,326,32,1*6E
$GPGSV,4,4,13,41,00,000,49,1*5E
$GIGSV,2,1,07,03,76,151,47,02,65,259,43,05,52,062,49,04,40,135,45,4*7D
$GIGSV,2,2,07,06,38,261,39,07,29,100,45,01,00,000,43,4*47
$GNRMC,062444.000,A,0832.0956,N,07659.6709,E,000.0,000.0,260719,,,D*78
$GNVTG,000.0,T,,M,000.0,N,000.0,K,D*16
$GNZDA,062444.000,26,07,2019,00,00*41
$GNGGA,062445.000,0832.0956,N,07659.6709,E,2,17,0.6,47.6,M,-88.1,M,,0000*5F
$GNGLL,0832.0956,N,07659.6709,E,062445.000,A,D*45
$GNGSA,A,3,02,06,17,19,28,24,15,05,12,13,25,,1.1,0.6,0.9,1*3F
$GNGSA,A,3,02,03,04,05,06,07,,,,,,,1.1,0.6,0.9,4*3A
$GNRMC,062445.000,A,0832.0956,N,07659.6709,E,000.0,000.0,260719,,,D*79
$GNVTG,000.0,T,,M,000.0,N,000.0,K,D*16
$GNZDA,062445.000,26,07,2019,00,00*40
$GNGGA,062446.000,0832.0956,N,07659.6709,E,2,17,0.6,47.6,M,-88.1,M,,0000*5C
$GNGLL,0832.0956,N,07659.6709,E,062446.000,A,D*46
$GNGSA,A,3,02,06,17,19,28,24,15,05,12,13,25,,1.1,0.6,0.9,1*3F
$GNGSA,A,3,02,03,04,05,06,07,,,,,,,1.1,0.6,0.9,4*3A
$GNRMC,062446.000,A,0832.0956,N,07659.6709,E,000.0,000.0,260719,,,D*7A
$GNVTG,000.0,T,,M,000.0,N,000.0,K,D*16
$GNZDA,062446.000,26,07,2019,00,00*43
$GNGGA,062447.000,0832.0956,N,07659.6709,E,2,17,0.6,47.6,M,-88.1,M,,0000*5D
$GNGLL,0832.0956,N,07659.6709,E,062447.000,A,D*47
$GNGSA,A,3,02,06,17,19,28,24,15,05,12,13,25,,1.1,0.6,0.9,1*3F
$GNGSA,A,3,02,03,04,05,06,07,,,,,,,1.1,0.6,0.9,4*3A
$GPGSV,4,1,13,05,68,155,46,40,63,250,42,12,44,336,46,02,44,351,45,1*68
$GPGSV,4,2,13,24,32,247,33,19,19,063,24,06,16,029,47,13,14,171,30,1*6F
$GPGSV,4,3,13,17,13,076,37,28,11,139,36,15,08,204,24,25,07,326,32,1*6E
$GPGSV,4,4,13,41,00,000,49,1*5E
$GIGSV,2,1,07,03,76,151,47,02,65,258,44,05,52,062,49,04,40,135,45,4*7B
$GIGSV,2,2,07,06,38,261,39,07,29,100,45,01,00,000,43,4*47
$GNRMC,062447.000,A,0832.0956,N,07659.6709,E,000.0,000.0,260719,,,D*7B
$GNVTG,000.0,T,,M,000.0,N,000.0,K,D*16
$GNZDA,062447.000,26,07,2019,00,00*42
$GNGGA,062448.000,0832.0956,N,07659.6709,E,2,17,0.6,47.6,M,-88.1,M,,0000*52
$GNGLL,0832.0956,N,07659.6709,E,062448.000,A,D*48
$GNGSA,A,3,02,06,17,19,28,24,15,05,12,13,25,,1.1,0.6,0.9,1*3F
$GNGSA,A,3,02,03,04,05,06,07,,,,,,,1.1,0.6,0.9,4*3A
$GNRMC,062448.000,A,0832.0956,N,07659.6709,E,000.0,000.0,260719,,,D*74
$GNVTG,000.0,T,,M,000.0,N,000.0,K,D*16
$GNZDA,062448.000,26,07,2019,00,00*4D
$GNGGA,062449.000,0832.0956,N,07659.6709,E,2,17,0.6,47.6,M,-88.1,M,,0000*53
$GNGLL,0832.0956,N,07659.6709,E,062449.000,A,D*49
$GNGSA,A,3,02,06,17,19,28,24,15,05,12,13,25,,1.1,0.6,0.9,1*3F
$GNGSA,A,3,02,03,04,05,06,07,,,,,,,1.1,0.6,0.9,4*3A
$GNRMC,062449.000,A,0832.0956,N,07659.6709,E,000.0,000.0,260719,,,D*75
$GNVTG,000.0,T,,M,000.0,N,000.0,K,D*16
$GNZDA,062449.000,26,07,2019,00,00*4C
$GNGGA,062450.000,0832.0956,N,07659.6709,E,2,17,0.6,47.6,M,-88.1,M,,0000*5B
$GNGLL,0832.0956,N,07659.6709,E,062450.000,A,D*41
$GNGSA,A,3,02,06,17,19,28,24,15,05,12,13,25,,1.1,0.6,0.9,1*3F
$GNGSA,A,3,02,03,04,05,06,07,,,,,,,1.1,0.6,0.9,4*3A
$GPGSV,4,1,13,05,68,155,46,40,63,250,41,12,44,336,47,02,44,351,45,1*6A
$GPGSV,4,2,13,24,32,247,31,19,19,063,25,06,16,029,47,13,14,171,31,1*6D
$GPGSV,4,3,13,17,13,076,37,28,11,139,36,15,08,204,23,25,07,326,30,1*6B
$GPGSV,4,4,13,41,00,000,49,1*5E
$GIGSV,2,1,07,03,76,151,48,02,65,258,45,05,52,062,50,04,40,135,46,4*7E
$GIGSV,2,2,07,06,38,261,40,07,29,100,45,01,00,000,44,4*4E
$GNRMC,062450.000,A,0832.0956,N,07659.6709,E,000.0,000.0,260719,,,D*7D
$GNVTG,000.0,T,,M,000.0,N,000.0,K,D*16
$GNZDA,062450.000,26,07,2019,00,00*44
$GNGGA,062451.000,0832.0956,N,07659.6709,E,2,17,0.6,47.6,M,-88.1,M,,0000*5A
$GNGLL,0832.0956,N,07659.6709,E,062451.000,A,D*40
$GNGSA,A,3,02,06,17,19,28,24,15,05,12,13,25,,1.1,0.6,0.9,1*3F
$GNGSA,A,3,02,03,04,05,06,07,,,,,,,1.1,0.6,0.9,4*3A
$GNRMC,062451.000,A,0832.0956,N,07659.6709,E,000.0,000.0,260719,,,D*7C
$GNVTG,000.0,T,,M,000.0,N,000.0,K,D*16
$GNZDA,062451.000,26,07,2019,00,00*45
$GNGGA,062452.000,0832.0956,N,07659.6709,E,2,17,0.6,47.6,M,-88.1,M,,0000*59
$GNGLL,0832.0956,N,07659.6709,E,062452.000,A,D*43
$GNGSA,A,3,02,06,17,19,28,24,15,05,12,13,25,,1.1,0.6,0.9,1*3F
$GNGSA,A,3,02,03,04,05,06,07,,,,,,,1.1,0.6,0.9,4*3A
$GNRMC,062452.000,A,0832.0956,N,07659.6709,E,000.0,000.0,260719,,,D*7F
$GNVTG,000.0,T,,M,000.0,N,000.0,K,D*16
$GNZDA,062452.000,26,07,2019,00,00*46
$GNGGA,062453.000,0832.0956,N,07659.6709,E,2,17,0.6,47.6,M,-88.1,M,,0000*58
$GNGLL,0832.0956,N,07659.6709,E,062453.000,A,D*42
$GNGSA,A,3,02,06,17,19,28,24,15,05,12,13,25,,1.1,0.6,0.9,1*3F
$GNGSA,A,3,02,03,04,05,06,07,,,,,,,1.1,0.6,0.9,4*3A
$GPGSV,4,1,13,05,68,155,47,40,63,250,42,12,44,336,47,02,44,351,45,1*68
$GPGSV,4,2,13,24,32,247,31,19,19,063,29,06,16,029,48,13,14,171,30,1*6F
$GPGSV,4,3,13,17,13,076,37,28,11,139,36,15,08,204,23,25,07,326,31,1*6A
$GPGSV,4,4,13,41,00,000,49,1*5E
$GIGSV,2,1,07,03,76,151,48,02,65,258,45,05,52,062,50,04,40,135,46,4*7E
$GIGSV,2,2,07,06,38,261,40,07,29,100,45,01,00,000,43,4*49
$GNRMC,062453.000,A,0832.0956,N,07659.6709,E,000.0,000.0,260719,,,D*7E
$GNVTG,000.0,T,,M,000.0,N,000.0,K,D*16
$GNZDA,062453.000,26,07,2019,00,00*47
$PIRNSF,4,2,8B,4A,13,08,70,20,F2,45,BA,F8,04,99,79,4F,2B,AA,4E,97,D3,5B,FB,92,09,35,9E,B7,FF,77,71,4B,B4,2E,A3,CE,1F,24,1*09
$PIRNSF,6,2,8B,4A,13,08,08,30,11,B5,BC,30,04,23,F6,A7,2B,AD,8B,BB,54,F9,83,62,1C,B1,2D,6F,FF,07,E0,1D,FF,15,C0,18,E3,30,0*05
$PIRNSF,7,2,8B,4A,13,08,DD,18,6B,89,BC,30,01,2B,4E,83,2B,AB,10,FB,5B,CF,8B,AE,55,11,77,2F,FE,C3,60,1E,81,DE,42,7C,D3,70,0*7C
$GNGGA,062454.000,0832.0956,N,07659.6709,E,2,17,0.6,47.6,M,-88.1,M,,0000*5F
$GNGLL,0832.0956,N,07659.6709,E,062454.000,A,D*45
$GNGSA,A,3,02,06,17,19,28,24,15,05,12,13,25,,1.1,0.6,0.9,1*3F
$GNGSA,A,3,02,03,04,05,06,07,,,,,,,1.1,0.6,0.9,4*3A
$GNRMC,062454.000,A,0832.0956,N,07659.6709,E,000.0,000.0,260719,,,D*79
$GNVTG,000.0,T,,M,000.0,N,000.0,K,D*16
$GNZDA,062454.000,26,07,2019,00,00*40
$PIRNSF,3,2,8B,4A,13,0A,EB,A5,52,0D,BA,F8,03,FA,B9,17,2B,AB,DF,3E,F5,DC,83,C0,19,4C,B7,4B,FD,2A,D0,15,B4,76,D0,F7,88,54,1*71
$PIRNSF,2,2,8B,4A,13,0B,D6,28,FC,A1,BC,30,04,78,69,A7,2B,AB,99,07,D3,12,C9,CA,10,E8,CA,8B,FF,74,01,4C,BF,F1,20,68,FF,30,0*7B
$PIRNSF,5,2,8B,4A,13,0A,88,A1,39,49,BC,30,03,E0,AA,CB,2B,AF,66,E5,D0,66,E8,8E,02,5C,CB,2F,FF,6E,61,4E,40,54,31,87,E9,50,0*73
$PIRNSF,1,4,8B,4A,13,79,45,55,55,55,55,55,55,55,55,55,55,55,55,55,55,55,55,55,55,55,55,55,55,55,55,55,55,55,06,58,F0,5C,0*00
$GNGGA,062455.000,0832.0956,N,07659.6709,E,2,17,0.6,47.6,M,-88.1,M,,0000*5E
$GNGLL,0832.0956,N,07659.6709,E,062455.000,A,D*44
$GNGSA,A,3,02,06,17,19,28,24,15,05,12,13,25,,1.1,0.6,0.9,1*3F
$GNGSA,A,3,02,03,04,05,06,07,,,,,,,1.1,0.6,0.9,4*3A
$GNRMC,062455.000,A,0832.0956,N,07659.6709,E,000.0,000.0,260719,,,D*78
$GNVTG,000.0,T,,M,000.0,N,000.0,K,D*16
$GNZDA,062455.000,26,07,2019,00,00*41
$GNGGA,062456.000,0832.0956,N,07659.6709,E,2,17,0.6,47.6,M,-88.1,M,,0000*5D
$GNGLL,0832.0956,N,07659.6709,E,062456.000,A,D*47
$GNGSA,A,3,02,06,17,19,28,24,15,05,12,13,25,,1.1,0.6,0.9,1*3F
$GNGSA,A,3,02,03,04,05,06,07,,,,,,,1.1,0.6,0.9,4*3A
$GPGSV,4,1,13,05,69,155,47,40,63,250,42,12,44,336,47,02,44,351,45,1*69
$GPGSV,4,2,13,24,32,247,30,19,19,063,27,06,16,029,47,13,14,171,30,1*6F
$GPGSV,4,3,13,17,13,076,37,28,11,139,36,15,08,204,23,25,07,326,30,1*6B
$GPGSV,4,4,13,41,00,000,49,1*5E
$GIGSV,2,1,07,03,76,151,48,02,65,258,45,05,52,062,50,04,40,135,46,4*7E
$GIGSV,2,2,07,06,38,261,40,07,29,100,45,01,00,000,43,4*49
$GNRMC,062456.000,A,0832.0956,N,07659.6709,E,000.0,000.0,260719,,,D*7B
$GNVTG,000.0,T,,M,000.0,N,000.0,K,D*16
$GNZDA,062456.000,26,07,2019,00,00*42
$GNGGA,062457.000,0832.0956,N,07659.6709,E,2,17,0.6,47.6,M,-88.1,M,,0000*5C
$GNGLL,0832.0956,N,07659.6709,E,062457.000,A,D*46
$GNGSA,A,3,02,06,17,19,28,24,15,05,12,13,25,,1.1,0.6,0.9,1*3F
$GNGSA,A,3,02,03,04,05,06,07,,,,,,,1.1,0.6,0.9,4*3A
$GNRMC,062457.000,A,0832.0956,N,07659.6709,E,000.0,000.0,260719,,,D*7A
$GNVTG,000.0,T,,M,000.0,N,000.0,K,D*16
$GNZDA,062457.000,26,07,2019,00,00*43
$GNGGA,062458.000,0832.0956,N,07659.6709,E,2,17,0.6,47.6,M,-88.1,M,,0000*53
$GNGLL,0832.0956,N,07659.6709,E,062458.000,A,D*49
$GNGSA,A,3,02,06,17,19,28,24,15,05,12,13,25,,1.1,0.6,0.9,1*3F
$GNGSA,A,3,02,03,04,05,06,07,,,,,,,1.1,0.6,0.9,4*3A
$GNRMC,062458.000,A,0832.0956,N,07659.6709,E,000.0,000.0,260719,,,D*75
$GNVTG,000.0,T,,M,000.0,N,000.0,K,D*16
$GNZDA,062458.000,26,07,2019,00,00*4C
$GNGGA,062459.000,0832.0956,N,07659.6709,E,2,17,0.6,47.6,M,-88.1,M,,0000*52
$GNGLL,0832.0956,N,07659.6709,E,062459.000,A,D*48
$GNGSA,A,3,02,06,17,19,28,24,15,05,12,13,25,,1.1,0.6,0.9,1*3F
$GNGSA,A,3,02,03,04,05,06,07,,,,,,,1.1,0.6,0.9,4*3A
$GPGSV,4,1,13,05,69,155,47,40,63,250,42,12,44,336,47,02,44,351,45,1*69
$GPGSV,4,2,13,24,32,247,32,19,19,063,26,06,16,029,48,13,14,171,30,1*63
$GPGSV,4,3,13,17,13,076,36,28,11,139,35,15,08,204,22,25,07,326,31,1*69
$GPGSV,4,4,13,41,00,000,49,1*5E
$GIGSV,2,1,07,03,76,151,48,02,65,258,44,05,52,062,50,04,40,135,46,4*7F
$GIGSV,2,2,07,06,38,261,39,07,29,100,45,01,00,000,43,4*47
$GNRMC,062459.000,A,0832.0956,N,07659.6709,E,000.0,000.0,260719,,,D*74
$GNVTG,000.0,T,,M,000.0,N,000.0,K,D*16
$GNZDA,062459.000,26,07,2019,00,00*4D
$GNGGA,062500.000,0832.0956,N,07659.6709,E,2,17,0.6,47.6,M,-88.1,M,,0000*5F
$GNGLL,0832.0956,N,07659.6709,E,062500.000,A,D*45
$GNGSA,A,3,02,06,17,19,28,24,15,05,12,13,25,,1.1,0.6,0.9,1*3F
$GNGSA,A,3,02,03,04,05,06,07,,,,,,,1.1,0.6,0.9,4*3A
$GNRMC,062500.000,A,0832.0956,N,07659.6709,E,000.0,000.0,260719,,,D*79
$GNVTG,000.0,T,,M,000.0,N,000.0,K,D*16
$GNZDA,062500.000,26,07,2019,00,00*40
$GNGGA,062501.000,0832.0956,N,07659.6709,E,2,17,0.6,47.6,M,-88.1,M,,0000*5E
$GNGLL,0832.0956,N,07659.6709,E,062501.000,A,D*44
$GNGSA,A,3,02,06,17,19,28,24,15,05,12,13,25,,1.1,0.6,0.9,1*3F
$GNGSA,A,3,02,03,04,05,06,07,,,,,,,1.1,0.6,0.9,4*3A
$GNRMC,062501.000,A,0832.0956,N,07659.6709,E,000.0,000.0,260719,,,D*78
$GNVTG,000.0,T,,M,000.0,N,000.0,K,D*16
$GNZDA,062501.000,26,07,2019,00,00*41
$GNGGA,062502.000,0832.0956,N,07659.6709,E,2,17,0.6,47.6,M,-88.1,M,,0000*5D
$GNGLL,0832.0956,N,07659.6709,E,062502.000,A,D*47
$GNGSA,A,3,02,06,17,19,28,24,15,05,12,13,25,,1.1,0.6,0.9,1*3F
$GNGSA,A,3,02,03,04,05,06,07,,,,,,,1.1,0.6,0.9,4*3A
$GPGSV,4,1,13,05,69,155,47,40,63,250,42,12,44,336,47,02,44,351,45,1*69
$GPGSV,4,2,13,24,32,247,32,19,19,063,28,06,16,029,48,13,14,171,30,1*6D
$GPGSV,4,3,13,17,13,076,36,28,11,139,36,15,08,204,21,25,07,326,31,1*69
$GPGSV,4,4,13,41,00,000,49,1*5E
$GIGSV,2,1,07,03,76,151,48,02,65,258,44,05,52,062,50,04,40,135,46,4*7F
$GIGSV,2,2,07,06,38,261,40,07,29,100,45,01,00,000,44,4*4E
$GNRMC,062502.000,A,0832.0956,N,07659.6709,E,000.0,000.0,260719,,,D*7B
$GNVTG,000.0,T,,M,000.0,N,000.0,K,D*16
$GNZDA,062502.000,26,07,2019,00,00*42
$GNGGA,062503.000,0832.0956,N,07659.6709,E,2,16,0.7,47.6,M,-88.1,M,,0000*5C
$GNGLL,0832.0956,N,07659.6709,E,062503.000,A,D*46
$GNGSA,A,3,02,06,17,19,28,24,05,12,13,25,,,1.1,0.7,0.9,1*3A
$GNGSA,A,3,02,03,04,05,06,07,,,,,,,1.1,0.7,0.9,4*3B
$GNRMC,062503.000,A,0832.0956,N,07659.6709,E,000.0,000.0,260719,,,D*7A
$GNVTG,000.0,T,,M,000.0,N,000.0,K,D*16
$GNZDA,062503.000,26,07,2019,00,00*43
$GNGGA,062504.000,0832.0956,N,07659.6709,E,2,16,0.7,47.6,M,-88.1,M,,0000*5B
$GNGLL,0832.0956,N,07659.6709,E,062504.000,A,D*41
$GNGSA,A,3,02,06,17,19,28,24,05,12,13,25,,,1.1,0.7,0.9,1*3A
$GNGSA,A,3,02,03,04,05,06,07,,,,,,,1.1,0.7,0.9,4*3B
$GNRMC,062504.000,A,0832.0956,N,07659.6709,E,000.0,000.0,260719,,,D*7D
$GNVTG,000.0,T,,M,000.0,N,000.0,K,D*16
$GNZDA,062504.000,26,07,2019,00,00*44
$GNGGA,062505.000,0832.0956,N,07659.6709,E,2,17,0.6,47.6,M,-88.1,M,,0000*5A
$GNGLL,0832.0956,N,07659.6709,E,062505.000,A,D*40
$GNGSA,A,3,02,06,17,19,28,24,15,05,12,13,25,,1.1,0.6,0.9,1*3F
$GNGSA,A,3,02,03,04,05,06,07,,,,,,,1.1,0.6,0.9,4*3A
$GPGSV,4,1,13,05,69,155,47,40,63,250,42,12,44,336,47,02,44,351,46,1*6A
$GPGSV,4,2,13,24,32,247,32,19,19,063,27,06,16,029,48,13,14,171,30,1*62
$GPGSV,4,3,13,17,13,076,36,28,11,139,35,15,08,204,23,25,07,326,29,1*61
$GPGSV,4,4,13,41,00,000,49,1*5E
$GIGSV,2,1,07,03,76,151,47,02,65,258,44,05,52,062,49,04,40,135,45,4*7B
$GIGSV,2,2,07,06,38,261,39,07,29,100,45,01,00,000,43,4*47
$GNRMC,062505.000,A,0832.0956,N,07659.6709,E,000.0,000.0,260719,,,D*7C
$GNVTG,000.0,T,,M,000.0,N,000.0,K,D*16
$GNZDA,062505.000,26,07,2019,00,00*45
$PIRNSF,3,3,8B,4A,13,91,3F,DF,03,80,0F,BF,A0,03,00,00,00,00,00,00,00,00,00,00,00,00,00,00,00,00,00,00,00,00,0E,CC,DB,A8,0*7F
$PIRNSF,2,3,8B,4A,13,90,50,18,74,3B,A2,3D,0D,E8,BF,86,FA,57,D2,96,91,F0,73,82,FD,16,68,C3,46,7A,3E,D2,50,00,09,2E,50,20,0*0F
$PIRNSF,5,3,8B,4A,13,90,70,3C,47,45,A5,E0,53,30,48,00,47,2B,AB,07,D3,0F,86,11,6F,7A,C6,1B,6F,D9,FF,60,80,00,14,84,AE,58,0*08
$PIRNSF,4,3,8B,4A,13,90,50,19,70,7F,A2,FD,13,E8,A7,45,FA,37,D1,CE,8E,74,7D,A4,0D,22,68,F7,45,9A,22,E0,F8,00,12,8C,D2,CC,0*72
$GNGGA,062506.000,0832.0956,N,07659.6709,E,2,17,0.6,47.6,M,-88.1,M,,0000*59
$GNGLL,0832.0956,N,07659.6709,E,062506.000,A,D*43
$GNGSA,A,3,02,06,17,19,28,24,15,05,12,13,25,,1.1,0.6,0.9,1*3F
$GNGSA,A,3,02,03,04,05,06,07,,,,,,,1.1,0.6,0.9,4*3A
$GNRMC,062506.000,A,0832.0956,N,07659.6709,E,000.0,000.0,260719,,,D*7F
$GNVTG,000.0,T,,M,000.0,N,000.0,K,D*16
$GNZDA,062506.000,26,07,2019,00,00*46
$PIRNSF,6,3,8B,4A,13,90,50,18,B4,85,A4,1C,1D,58,D2,C6,58,39,D1,DE,90,34,8B,A5,1D,1C,60,B7,05,54,2D,B1,88,00,1B,F6,27,CC,0*06
$PIRNSF,7,3,8B,4A,13,91,AF,FF,6F,F7,00,12,69,8A,03,F8,97,12,FF,09,FE,98,06,98,A0,3F,80,00,00,00,00,00,00,00,1E,56,D6,48,0*07
$PIRNSF,1,4,8B,4A,13,F9,45,55,55,55,55,55,55,55,55,55,55,55,55,55,55,55,55,55,55,55,55,55,55,55,55,55,55,55,04,12,F0,5C,0*7D
$GNGGA,062507.000,0832.0956,N,07659.6709,E,2,16,0.7,47.6,M,-88.1,M,,0000*58
$GNGLL,0832.0956,N,07659.6709,E,062507.000,A,D*42
$GNGSA,A,3,02,06,17,19,28,24,05,12,13,25,,,1.1,0.7,0.9,1*3A
$GNGSA,A,3,02,03,04,05,06,07,,,,,,,1.1,0.7,0.9,4*3B
$GNRMC,062507.000,A,0832.0956,N,07659.6709,E,000.0,000.0,260719,,,D*7E
$GNVTG,000.0,T,,M,000.0,N,000.0,K,D*16
$GNZDA,062507.000,26,07,2019,00,00*47
$GNGGA,062508.000,0832.0956,N,07659.6709,E,2,16,0.7,47.6,M,-88.1,M,,0000*57
$GNGLL,0832.0956,N,07659.6709,E,062508.000,A,D*4D
$GNGSA,A,3,02,06,17,19,28,24,05,12,13,25,,,1.1,0.7,0.9,1*3A
$GNGSA,A,3,02,03,04,05,06,07,,,,,,,1.1,0.7,0.9,4*3B
$GPGSV,4,1,13,05,69,155,47,40,63,250,42,12,44,336,47,02,44,351,46,1*6A
$GPGSV,4,2,13,24,32,247,31,19,19,063,28,06,16,029,48,13,14,171,29,1*66
$GPGSV,4,3,13,17,13,077,36,28,11,139,35,15,08,204,22,25,07,326,30,1*69
$GPGSV,4,4,13,41,00,000,50,1*56
$GIGSV,2,1,07,03,76,151,47,02,65,258,44,05,52,062,49,04,40,135,45,4*7B
$GIGSV,2,2,07,06,38,261,39,07,29,100,44,01,00,000,43,4*46
$GNRMC,062508.000,A,0832.0956,N,07659.6709,E,000.0,000.0,260719,,,D*71
$GNVTG,000.0,T,,M,000.0,N,000.0,K,D*16
$GNZDA,062508.000,26,07,2019,00,00*48
$GNGGA,062509.000,0832.0956,N,07659.6709,E,2,16,0.7,47.6,M,-88.1,M,,0000*56
$GNGLL,0832.0956,N,07659.6709,E,062509.000,A,D*4C
$GNGSA,A,3,02,06,17,19,28,24,05,12,13,25,,,1.1,0.7,0.9,1*3A
$GNGSA,A,3,02,03,04,05,06,07,,,,,,,1.1,0.7,0.9,4*3B
$GNRMC,062509.000,A,0832.0956,N,07659.6709,E,000.0,000.0,260719,,,D*70
$GNVTG,000.0,T,,M,000.0,N,000.0,K,D*16
$GNZDA,062509.000,26,07,2019,00,00*49
$GNGGA,062510.000,0832.0956,N,07659.6709,E,2,16,0.7,47.6,M,-88.1,M,,0000*5E
$GNGLL,0832.0956,N,07659.6709,E,062510.000,A,D*44
$GNGSA,A,3,02,06,17,19,28,24,05,12,13,25,,,1.1,0.7,0.9,1*3A
$GNGSA,A,3,02,03,04,05,06,07,,,,,,,1.1,0.7,0.9,4*3B
$GNRMC,062510.000,A,0832.0956,N,07659.6709,E,000.0,000.0,260719,,,D*78
$GNVTG,000.0,T,,M,000.0,N,000.0,K,D*16
$GNZDA,062510.000,26,07,2019,00,00*41
$GNGGA,062511.000,0832.0956,N,07659.6709,E,2,16,0.7,47.6,M,-88.1,M,,0000*5F
$GNGLL,0832.0956,N,07659.6709,E,062511.000,A,D*45
$GNGSA,A,3,02,06,17,19,28,24,05,12,13,25,,,1.1,0.7,0.9,1*3A
$GNGSA,A,3,02,03,04,05,06,07,,,,,,,1.1,0.7,0.9,4*3B
$GPGSV,4,1,13,05,69,155,47,40,63,250,43,12,44,336,48,02,44,351,46,1*64
$GPGSV,4,2,13,24,32,247,32,19,19,063,26,06,16,029,48,13,14,171,29,1*6B
$GPGSV,4,3,13,17,13,077,36,28,11,139,36,15,08,204,22,25,07,326,31,1*6B
$GPGSV,4,4,13,41,00,000,50,1*56
$GIGSV,2,1,07,03,76,151,47,02,65,258,43,05,52,062,49,04,40,135,45,4*7C
$GIGSV,2,2,07,06,38,261,39,07,29,100,44,01,00,000,42,4*47
$GNRMC,062511.000,A,0832.0956,N,07659.6709,E,000.0,000.0,260719,,,D*79
$GNVTG,000.0,T,,M,000.0,N,000.0,K,D*16
$GNZDA,062511.000,26,07,2019,00,00*40
$GNGGA,062512.000,0832.0956,N,07659.6709,E,2,17,0.6,47.6,M,-88.1,M,,0000*5C
$GNGLL,0832.0956,N,07659.6709,E,062512.000,A,D*46
$GNGSA,A,3,02,06,17,19,28,24,15,05,12,13,25,,1.1,0.6,0.9,1*3F
$GNGSA,A,3,02,03,04,05,06,07,,,,,,,1.1,0.6,0.9,4*3A
$GNRMC,062512.000,A,0832.0956,N,07659.6709,E,000.0,000.0,260719,,,D*7A
$GNVTG,000.0,T,,M,000.0,N,000.0,K,D*16
$GNZDA,062512.000,26,07,2019,00,00*43
$GNGGA,062513.000,0832.0956,N,07659.6709,E,2,16,0.7,47.6,M,-88.1,M,,0000*5D
$GNGLL,0832.0956,N,07659.6709,E,062513.000,A,D*47
$GNGSA,A,3,02,06,17,19,28,24,05,12,13,25,,,1.1,0.7,0.9,1*3A
$GNGSA,A,3,02,03,04,05,06,07,,,,,,,1.1,0.7,0.9,4*3B
$GNRMC,062513.000,A,0832.0956,N,07659.6709,E,000.0,000.0,260719,,,D*7B
$GNVTG,000.0,T,,M,000.0,N,000.0,K,D*16
$GNZDA,062513.000,26,07,2019,00,00*42
$GNGGA,062514.000,0832.0956,N,07659.6709,E,2,16,0.7,47.6,M,-88.1,M,,0000*5A
$GNGLL,0832.0956,N,07659.6709,E,062514.000,A,D*40
$GNGSA,A,3,02,06,17,19,28,24,05,12,13,25,,,1.1,0.7,0.9,1*3A
$GNGSA,A,3,02,03,04,05,06,07,,,,,,,1.1,0.7,0.9,4*3B
$GPGSV,4,1,13,05,69,155,47,40,63,250,43,12,44,336,48,02,44,351,46,1*64
$GPGSV,4,2,13,24,32,247,33,19,19,063,26,06,16,029,48,13,14,171,29,1*6A
$GPGSV,4,3,13,17,13,077,36,28,11,139,37,15,08,204,22,25,07,326,31,1*6A
$GPGSV,4,4,13,41,00,000,49,1*5E
$GIGSV,2,1,07,03,76,151,47,02,65,258,44,05,52,062,49,04,40,135,45,4*7B
$GIGSV,2,2,07,06,38,261,39,07,29,100,44,01,00,000,43,4*46
$GNRMC,062514.000,A,0832.0956,N,07659.6709,E,000.0,000.0,260719,,,D*7C
$GNVTG,000.0,T,,M,000.0,N,000.0,K,D*16
$GNZDA,062514.000,26,07,2019,00,00*45
$GNGGA,062515.000,0832.0956,N,07659.6709,E,2,16,0.7,47.6,M,-88.1,M,,0000*5B
$GNGLL,0832.0956,N,07659.6709,E,062515.000,A,D*41
$GNGSA,A,3,02,06,17,19,28,24,05,12,13,25,,,1.1,0.7,0.9,1*3A
$GNGSA,A,3,02,03,04,05,06,07,,,,,,,1.1,0.7,0.9,4*3B
$GNRMC,062515.000,A,0832.0956,N,07659.6709,E,000.0,000.0,260719,,,D*7D
$GNVTG,000.0,T,,M,000.0,N,000.0,K,D*16
$GNZDA,062515.000,26,07,2019,00,00*44
$GNGGA,062516.000,0832.0956,N,07659.6709,E,2,16,0.7,47.6,M,-88.1,M,,0000*58
$GNGLL,0832.0956,N,07659.6709,E,062516.000,A,D*42
$GNGSA,A,3,02,06,17,19,28,24,05,12,13,25,,,1.1,0.7,0.9,1*3A
$GNGSA,A,3,02,03,04,05,06,07,,,,,,,1.1,0.7,0.9,4*3B
$GNRMC,062516.000,A,0832.0956,N,07659.6709,E,000.0,000.0,260719,,,D*7E
$GNVTG,000.0,T,,M,000.0,N,000.0,K,D*16
$GNZDA,062516.000,26,07,2019,00,00*47
$GNGGA,062517.000,0832.0956,N,07659.6709,E,2,16,0.7,47.6,M,-88.1,M,,0000*59
$GNGLL,0832.0956,N,07659.6709,E,062517.000,A,D*43
$GNGSA,A,3,02,06,17,19,28,24,05,12,13,25,,,1.1,0.7,0.9,1*3A
$GNGSA,A,3,02,03,04,05,06,07,,,,,,,1.1,0.7,0.9,4*3B
$GPGSV,4,1,13,05,69,155,47,40,63,250,42,12,44,336,48,02,44,351,45,1*66
$GPGSV,4,2,13,24,32,247,32,19,19,063,28,06,16,029,48,13,14,171,30,1*6D
$GPGSV,4,3,13,17,13,077,36,28,11,139,37,15,08,204,21,25,07,326,31,1*69
$GPGSV,4,4,13,41,00,000,50,1*56
$GIGSV,2,1,07,03,76,151,47,02,65,258,43,05,52,062,49,04,40,135,45,4*7C
$GIGSV,2,2,07,06,38,261,39,07,29,100,44,01,00,000,43,4*46
$GNRMC,062517.000,A,0832.0956,N,07659.6709,E,000.0,000.0,260719,,,D*7F
$GNVTG,000.0,T,,M,000.0,N,000.0,K,D*16
$GNZDA,062517.000,26,07,2019,00,00*46
$PIRNSF,7,4,8B,4A,14,19,30,00,5C,80,34,17,20,06,00,00,00,00,00,00,00,00,00,00,00,00,00,00,00,00,00,00,00,00,1C,A4,20,44,1*71
$PIRNSF,3,4,8B,4A,14,19,AF,FF,6F,F7,00,12,69,8A,03,F8,97,12,FF,6D,FE,B6,26,98,A0,3C,00,00,00,00,00,00,00,00,0F,F9,47,38,0*0A
$PIRNSF,2,4,8B,4A,14,18,50,18,B4,85,A4,1C,1D,58,D2,C6,58,39,D1,DE,90,34,8B,A5,1D,1C,60,B7,05,54,2D,B1,88,00,0A,27,14,2C,0*04
$PIRNSF,5,4,8B,4A,14,18,70,3C,40,61,A5,E0,05,67,97,FE,57,2B,AB,E2,E6,AA,B8,1B,62,E9,F8,20,0F,78,7E,A0,C0,00,17,06,D8,DC,0*78
$PIRNSF,4,4,8B,4A,14,18,B6,97,81,86,F9,09,E3,32,EF,57,9F,6F,FA,C7,08,20,D4,00,44,4B,D7,69,2B,C2,25,FC,00,00,10,41,3E,04,0*0B
$GNGGA,062518.000,0832.0956,N,07659.6709,E,2,16,0.7,47.6,M,-88.1,M,,0000*56
$GNGLL,0832.0956,N,07659.6709,E,062518.000,A,D*4C
$GNGSA,A,3,02,06,17,19,28,24,05,12,13,25,,,1.1,0.7,0.9,1*3A
$GNGSA,A,3,02,03,04,05,06,07,,,,,,,1.1,0.7,0.9,4*3B
$GNRMC,062518.000,A,0832.0956,N,07659.6709,E,000.0,000.0,260719,,,D*70
$GNVTG,000.0,T,,M,000.0,N,000.0,K,D*16
$GNZDA,062518.000,26,07,2019,00,00*49
$PIRNSF,1,4,8B,4A,14,79,45,55,55,55,55,55,55,55,55,55,55,55,55,55,55,55,55,55,55,55,55,55,55,55,55,55,55,55,07,C9,F0,5C,0*71
$PIRNSF,6,4,8B,4A,14,18,50,18,F0,79,84,1D,21,E9,1F,49,9A,25,C1,35,0A,24,57,42,FC,1A,E0,E7,47,9A,41,D2,30,00,1A,85,30,30,0*79
$GNGGA,062519.000,0832.0956,N,07659.6709,E,2,16,0.7,47.6,M,-88.1,M,,0000*57
$GNGLL,0832.0956,N,07659.6709,E,062519.000,A,D*4D
$GNGSA,A,3,02,06,17,19,28,24,05,12,13,25,,,1.1,0.7,0.9,1*3A
$GNGSA,A,3,02,03,04,05,06,07,,,,,,,1.1,0.7,0.9,4*3B
$GNRMC,062519.000,A,0832.0956,N,07659.6709,E,000.0,000.0,260719,,,D*71
$GNVTG,000.0,T,,M,000.0,N,000.0,K,D*16
$GNZDA,062519.000,26,07,2019,00,00*48
$GNGGA,062520.000,0832.0956,N,07659.6709,E,2,16,0.7,47.6,M,-88.1,M,,0000*5D
$GNGLL,0832.0956,N,07659.6709,E,062520.000,A,D*47
$GNGSA,A,3,02,06,17,19,28,24,05,12,13,25,,,1.1,0.7,0.9,1*3A
$GNGSA,A,3,02,03,04,05,06,07,,,,,,,1.1,0.7,0.9,4*3B
$GPGSV,4,1,13,05,69,155,47,40,63,250,43,12,44,336,48,02,44,351,46,1*64
$GPGSV,4,2,13,24,32,247,32,19,19,063,26,06,16,029,48,13,14,171,30,1*63
$GPGSV,4,3,13,17,13,077,36,28,10,139,36,15,08,204,18,25,07,326,32,1*60
$GPGSV,4,4,13,41,00,000,50,1*56
$GIGSV,2,1,07,03,76,151,47,02,65,258,43,05,52,062,49,04,40,135,45,4*7C
$GIGSV,2,2,07,06,38,261,39,07,29,100,45,01,00,000,43,4*47
$GNRMC,062520.000,A,0832.0956,N,07659.6709,E,000.0,000.0,260719,,,D*7B
$GNVTG,000.0,T,,M,000.0,N,000.0,K,D*16
$GNZDA,062520.000,26,07,2019,00,00*42
$GNGGA,062521.000,0832.0956,N,07659.6709,E,2,16,0.7,47.6,M,-88.1,M,,0000*5C
$GNGLL,0832.0956,N,07659.6709,E,062521.000,A,D*46
$GNGSA,A,3,02,06,17,19,28,24,05,12,13,25,,,1.1,0.7,0.9,1*3A
$GNGSA,A,3,02,03,04,05,06,07,,,,,,,1.1,0.7,0.9,4*3B
$GNRMC,062521.000,A,0832.0956,N,07659.6709,E,000.0,000.0,260719,,,D*7A
$GNVTG,000.0,T,,M,000.0,N,000.0,K,D*16
$GNZDA,062521.000,26,07,2019,00,00*43
$GNGGA,062522.000,0832.0956,N,07659.6709,E,2,16,0.7,47.6,M,-88.1,M,,0000*5F
$GNGLL,0832.0956,N,07659.6709,E,062522.000,A,D*45
$GNGSA,A,3,02,06,17,19,28,24,05,12,13,25,,,1.1,0.7,0.9,1*3A
$GNGSA,A,3,02,03,04,05,06,07,,,,,,,1.1,0.7,0.9,4*3B
$GNRMC,062522.000,A,0832.0956,N,07659.6709,E,000.0,000.0,260719,,,D*79
$GNVTG,000.0,T,,M,000.0,N,000.0,K,D*16
$GNZDA,062522.000,26,07,2019,00,00*40
$GNGGA,062523.000,0832.0956,N,07659.6709,E,2,15,0.7,47.6,M,-88.1,M,,0000*5D
$GNGLL,0832.0956,N,07659.6709,E,062523.000,A,D*44
$GNGSA,A,3,02,06,17,19,24,05,12,13,25,,,,1.2,0.7,1.0,1*3B
$GNGSA,A,3,02,03,04,05,06,07,,,,,,,1.2,0.7,1.0,4*30
$GPGSV,4,1,13,05,69,155,46,40,63,250,42,12,44,336,48,02,44,351,45,1*67
$GPGSV,4,2,13,24,32,247,33,19,19,063,25,06,16,029,47,13,14,171,31,1*6F
$GPGSV,4,3,13,17,13,077,35,28,10,139,,15,08,204,16,25,07,326,31,1*6B
$GPGSV,4,4,13,41,00,000,49,1*5E
$GIGSV,2,1,07,03,76,151,47,02,65,258,43,05,52,062,49,04,40,135,45,4*7C
$GIGSV,2,2,07,06,38,261,39,07,29,100,44,01,00,000,43,4*46
$GNRMC,062523.000,A,0832.0956,N,07659.6709,E,000.0,000.0,260719,,,D*78
$GNVTG,000.0,T,,M,000.0,N,000.0,K,D*16
$GNZDA,062523.000,26,07,2019,00,00*41
$GNGGA,062524.000,0832.0956,N,07659.6709,E,2,16,0.7,47.6,M,-88.1,M,,0000*59
$GNGLL,0832.0956,N,07659.6709,E,062524.000,A,D*43
$GNGSA,A,3,02,06,17,19,28,24,05,12,13,25,,,1.1,0.7,0.9,1*3A
$GNGSA,A,3,02,03,04,05,06,07,,,,,,,1.1,0.7,0.9,4*3B
$GNRMC,062524.000,A,0832.0956,N,07659.6709,E,000.0,000.0,260719,,,D*7F
$GNVTG,000.0,T,,M,000.0,N,000.0,K,D*16
$GNZDA,062524.000,26,07,2019,00,00*46
$GNGGA,062525.000,0832.0956,N,07659.6709,E,2,16,0.7,47.6,M,-88.1,M,,0000*58
$GNGLL,0832.0956,N,07659.6709,E,062525.000,A,D*42
$GNGSA,A,3,02,06,17,19,28,24,05,12,13,25,,,1.1,0.7,0.9,1*3A
$GNGSA,A,3,02,03,04,05,06,07,,,,,,,1.1,0.7,0.9,4*3B
$GNRMC,062525.000,A,0832.0956,N,07659.6709,E,000.0,000.0,260719,,,D*7E
$GNVTG,000.0,T,,M,000.0,N,000.0,K,D*16
$GNZDA,062525.000,26,07,2019,00,00*47
$GNGGA,062526.000,0832.0956,N,07659.6709,E,2,16,0.7,47.6,M,-88.1,M,,0000*5B
$GNGLL,0832.0956,N,07659.6709,E,062526.000,A,D*41
$GNGSA,A,3,02,06,17,19,28,24,05,12,13,25,,,1.1,0.7,0.9,1*3A
$GNGSA,A,3,02,03,04,05,06,07,,,,,,,1.1,0.7,0.9,4*3B
$GPGSV,4,1,13,05,69,154,46,40,63,250,42,12,44,336,48,02,44,352,44,1*64
$GPGSV,4,2,13,24,32,247,33,19,19,063,24,06,16,029,47,13,14,171,31,1*6E
$GPGSV,4,3,13,17,13,077,36,28,10,139,35,15,08,204,20,25,07,326,30,1*6A
$GPGSV,4,4,13,41,00,000,49,1*5E
$GIGSV,2,1,07,03,76,151,47,02,65,258,44,05,52,062,49,04,40,135,45,4*7B
$GIGSV,2,2,07,06,38,261,39,07,29,100,44,01,00,000,43,4*46
$GNRMC,062526.000,A,0832.0956,N,07659.6709,E,000.0,000.0,260719,,,D*7D
$GNVTG,000.0,T,,M,000.0,N,000.0,K,D*16
$GNZDA,062526.000,26,07,2019,00,00*44
$GNGGA,062527.000,0832.0956,N,07659.6709,E,2,16,0.7,47.6,M,-88.1,M,,0000*5A
$GNGLL,0832.0956,N,07659.6709,E,062527.000,A,D*40
$GNGSA,A,3,02,06,17,19,28,24,05,12,13,25,,,1.1,0.7,0.9,1*3A
$GNGSA,A,3,02,03,04,05,06,07,,,,,,,1.1,0.7,0.9,4*3B
$GNRMC,062527.000,A,0832.0956,N,07659.6709,E,000.0,000.0,260719,,,D*7C
$GNVTG,000.0,T,,M,000.0,N,000.0,K,D*16
$GNZDA,062527.000,26,07,2019,00,00*45
$GNGGA,062528.000,0832.0956,N,07659.6709,E,2,16,0.7,47.6,M,-88.1,M,,0000*55
$GNGLL,0832.0956,N,07659.6709,E,062528.000,A,D*4F
$GNGSA,A,3,02,06,17,19,28,24,05,12,13,25,,,1.1,0.7,0.9,1*3A
$GNGSA,A,3,02,03,04,05,06,07,,,,,,,1.1,0.7,0.9,4*3B
$GNRMC,062528.000,A,0832.0956,N,07659.6709,E,000.0,000.0,260719,,,D*73
$GNVTG,000.0,T,,M,000.0,N,000.0,K,D*16
$GNZDA,062528.000,26,07,2019,00,00*4A
$GNGGA,062529.000,0832.0956,N,07659.6709,E,2,16,0.7,47.6,M,-88.1,M,,0000*54
$GNGLL,0832.0956,N,07659.6709,E,062529.000,A,D*4E
$GNGSA,A,3,02,06,17,19,28,24,05,12,13,25,,,1.1,0.7,0.9,1*3A
$GNGSA,A,3,02,03,04,05,06,07,,,,,,,1.1,0.7,0.9,4*3B
$GPGSV,4,1,13,05,69,154,46,40,63,250,42,12,44,336,49,02,44,352,45,1*64
$GPGSV,4,2,13,24,32,247,32,19,19,063,25,06,15,029,47,13,14,171,31,1*6D
$GPGSV,4,3,13,17,13,077,33,28,10,139,35,15,08,204,22,25,07,326,31,1*6C
$GPGSV,4,4,13,41,00,000,49,1*5E
$GIGSV,2,1,07,03,76,151,48,02,65,258,44,05,52,062,49,04,40,135,45,4*74
$GIGSV,2,2,07,06,38,261,40,07,29,100,45,01,00,000,43,4*49
$GNRMC,062529.000,A,0832.0956,N,07659.6709,E,000.0,000.0,260719,,,D*72
$GNVTG,000.0,T,,M,000.0,N,000.0,K,D*16
$GNZDA,062529.000,26,07,2019,00,00*4B
$PIRNSF,6,1,8B,4A,14,80,0F,2A,6C,E8,07,C0,00,1B,C3,3F,00,12,1E,BA,F8,C0,D0,03,B5,40,00,FF,F3,C9,F2,30,6B,A6,D1,37,D8,D8,0*71
$PIRNSF,7,1,8B,4A,14,80,0F,16,10,3C,15,0C,00,1B,C3,3F,40,16,DF,BA,F8,C0,AC,E2,5E,C0,01,80,11,DE,70,26,9F,C4,81,CC,3C,B8,0*70
$PIRNSF,3,1,8B,4A,14,80,0F,DD,06,C3,F4,A4,00,5B,AF,BF,40,30,09,03,F8,CE,CA,C2,8B,00,14,80,24,DA,89,BB,FF,CE,02,4F,EC,64,0*7E
$GNGGA,062530.000,0832.0956,N,07659.6709,E,2,16,0.7,47.6,M,-88.1,M,,0000*5C
$GNGLL,0832.0956,N,07659.6709,E,062530.000,A,D*46
$GNGSA,A,3,02,06,17,19,28,24,05,12,13,25,,,1.1,0.7,0.9,1*3A
$GNGSA,A,3,02,03,04,05,06,07,,,,,,,1.1,0.7,0.9,4*3B
$GNRMC,062530.000,A,0832.0956,N,07659.6709,E,000.0,000.0,260719,,,D*7A
$GNVTG,000.0,T,,M,000.0,N,000.0,K,D*16
$GNZDA,062530.000,26,07,2019,00,00*43
$PIRNSF,2,1,8B,4A,14,80,0F,F5,C2,3F,FB,60,00,1B,C3,3F,00,08,F8,BA,F8,C2,2D,9E,D3,80,03,7F,D6,1D,1C,7F,8B,E9,61,92,A8,78,0*7D
$PIRNSF,5,1,8B,4A,14,80,0F,19,02,44,0E,4C,00,5B,C3,3F,C0,0A,14,BA,F8,C0,88,E0,A1,80,18,80,34,02,78,1D,00,6C,32,F3,8D,F0,0*77
$PIRNSF,4,1,8B,4A,14,80,0F,17,83,CC,00,20,00,1B,AF,BF,40,09,81,03,F8,C1,A3,9F,60,40,12,FF,FF,12,D4,5E,43,DB,A1,F1,EE,4C,0*77
$PIRNSF,1,4,8B,4A,14,F9,45,55,55,55,55,55,55,55,55,55,55,55,55,55,55,55,55,55,55,55,55,55,55,55,55,55,55,55,05,83,F0,5C,0*73
$GNGGA,062531.000,0832.0956,N,07659.6709,E,2,16,0.7,47.6,M,-88.1,M,,0000*5D
$GNGLL,0832.0956,N,07659.6709,E,062531.000,A,D*47
$GNGSA,A,3,02,06,17,19,28,24,05,12,13,25,,,1.1,0.7,0.9,1*3A
$GNGSA,A,3,02,03,04,05,06,07,,,,,,,1.1,0.7,0.9,4*3B
$GNRMC,062531.000,A,0832.0956,N,07659.6709,E,000.0,000.0,260719,,,D*7B
$GNVTG,000.0,T,,M,000.0,N,000.0,K,D*16
$GNZDA,062531.000,26,07,2019,00,00*42
$GNGGA,062532.000,0832.0956,N,07659.6709,E,2,16,0.7,47.6,M,-88.1,M,,0000*5E
$GNGLL,0832.0956,N,07659.6709,E,062532.000,A,D*44
$GNGSA,A,3,02,06,17,19,28,24,05,12,13,25,,,1.1,0.7,0.9,1*3A
$GNGSA,A,3,02,03,04,05,06,07,,,,,,,1.1,0.7,0.9,4*3B
$GPGSV,4,1,13,05,69,154,46,40,63,250,42,12,44,336,48,02,44,352,45,1*65
$GPGSV,4,2,13,24,32,247,33,19,19,063,24,06,15,029,47,13,14,171,30,1*6C
$GPGSV,4,3,13,17,13,077,34,28,10,139,35,15,08,204,21,25,07,326,31,1*68
$GPGSV,4,4,13,41,00,000,49,1*5E
$GIGSV,2,1,07,03,76,151,48,02,65,258,44,05,52,062,49,04,40,135,46,4*77
$GIGSV,2,2,07,06,38,261,40,07,29,100,45,01,00,000,44,4*4E
$GNRMC,062532.000,A,0832.0956,N,07659.6709,E,000.0,000.0,260719,,,D*78
$GNVTG,000.0,T,,M,000.0,N,000.0,K,D*16
$GNZDA,062532.000,26,07,2019,00,00*41
$GNGGA,062533.000,0832.0956,N,07659.6709,E,2,16,0.7,47.6,M,-88.1,M,,0000*5F
$GNGLL,0832.0956,N,07659.6709,E,062533.000,A,D*45
$GNGSA,A,3,02,06,17,19,28,24,05,12,13,25,,,1.1,0.7,0.9,1*3A
$GNGSA,A,3,02,03,04,05,06,07,,,,,,,1.1,0.7,0.9,4*3B
$GNRMC,062533.000,A,0832.0956,N,07659.6709,E,000.0,000.0,260719,,,D*79
$GNVTG,000.0,T,,M,000.0,N,000.0,K,D*16
$GNZDA,062533.000,26,07,2019,00,00*40
$GNGGA,062534.000,0832.0956,N,07659.6709,E,2,16,0.7,47.6,M,-88.1,M,,0000*58
$GNGLL,0832.0956,N,07659.6709,E,062534.000,A,D*42
$GNGSA,A,3,02,06,17,19,28,24,05,12,13,25,,,1.1,0.7,0.9,1*3A
$GNGSA,A,3,02,03,04,05,06,07,,,,,,,1.1,0.7,0.9,4*3B
$GNRMC,062534.000,A,0832.0956,N,07659.6709,E,000.0,000.0,260719,,,D*7E
$GNVTG,000.0,T,,M,000.0,N,000.0,K,D*16
$GNZDA,062534.000,26,07,2019,00,00*47
$GNGGA,062535.000,0832.0956,N,07659.6709,E,2,16,0.7,47.6,M,-88.1,M,,0000*59
$GNGLL,0832.0956,N,07659.6709,E,062535.000,A,D*43
$GNGSA,A,3,02,06,17,19,28,24,05,12,13,25,,,1.1,0.7,0.9,1*3A
$GNGSA,A,3,02,03,04,05,06,07,,,,,,,1.1,0.7,0.9,4*3B
$GPGSV,4,1,13,05,69,154,47,40,63,250,42,12,44,336,49,02,44,352,45,1*65
$GPGSV,4,2,13,24,32,247,34,19,19,063,26,06,15,029,48,13,14,171,31,1*67
$GPGSV,4,3,13,17,13,077,35,28,10,139,35,15,08,204,21,25,07,326,31,1*69
$GPGSV,4,4,13,41,00,000,50,1*56
$GIGSV,2,1,07,03,76,151,48,02,65,258,44,05,52,062,49,04,40,135,46,4*77
$GIGSV,2,2,07,06,38,261,40,07,29,100,45,01,00,000,44,4*4E
$GNRMC,062535.000,A,0832.0956,N,07659.6709,E,000.0,000.0,260719,,,D*7F
$GNVTG,000.0,T,,M,000.0,N,000.0,K,D*16
$GNZDA,062535.000,26,07,2019,00,00*46
$GNGGA,062536.000,0832.0956,N,07659.6709,E,2,16,0.7,47.6,M,-88.1,M,,0000*5A
$GNGLL,0832.0956,N,07659.6709,E,062536.000,A,D*40
$GNGSA,A,3,02,06,17,19,28,24,05,12,13,25,,,1.1,0.7,0.9,1*3A
$GNGSA,A,3,02,03,04,05,06,07,,,,,,,1.1,0.7,0.9,4*3B
$GNRMC,062536.000,A,0832.0956,N,07659.6709,E,000.0,000.0,260719,,,D*7C
$GNVTG,000.0,T,,M,000.0,N,000.0,K,D*16
$GNZDA,062536.000,26,07,2019,00,00*45
$GNGGA,062537.000,0832.0956,N,07659.6709,E,2,17,0.6,47.6,M,-88.1,M,,0000*5B
$GNGLL,0832.0956,N,07659.6709,E,062537.000,A,D*41
$GNGSA,A,3,02,06,17,19,28,24,15,05,12,13,25,,1.1,0.6,0.9,1*3F
$GNGSA,A,3,02,03,04,05,06,07,,,,,,,1.1,0.6,0.9,4*3A
$GNRMC,062537.000,A,0832.0956,N,07659.6709,E,000.0,000.0,260719,,,D*7D
$GNVTG,000.0,T,,M,000.0,N,000.0,K,D*16
$GNZDA,062537.000,26,07,2019,00,00*44
$GNGGA,062538.000,0832.0956,N,07659.6709,E,2,17,0.6,47.6,M,-88.1,M,,0000*54
$GNGLL,0832.0956,N,07659.6709,E,062538.000,A,D*4E
$GNGSA,A,3,02,06,17,19,28,24,15,05,12,13,25,,1.1,0.6,0.9,1*3F
$GNGSA,A,3,02,03,04,05,06,07,,,,,,,1.1,0.6,0.9,4*3A
$GPGSV,4,1,13,05,69,154,47,40,63,250,43,12,44,336,49,02,44,352,45,1*64
$GPGSV,4,2,13,24,32,247,34,19,19,063,25,06,15,029,48,13,14,171,32,1*67
$GPGSV,4,3,13,17,13,077,35,28,10,139,35,15,08,204,22,25,07,326,31,1*6A
$GPGSV,4,4,13,41,00,000,49,1*5E
$GIGSV,2,1,07,03,76,151,48,02,65,258,44,05,52,062,49,04,40,135,45,4*74
$GIGSV,2,2,07,06,38,261,39,07,29,100,45,01,00,000,44,4*40
$GNRMC,062538.000,A,0832.0956,N,07659.6709,E,000.0,000.0,260719,,,D*72
$GNVTG,000.0,T,,M,000.0,N,000.0,K,D*16
$GNZDA,062538.000,26,07,2019,00,00*4B
$GNGGA,062539.000,0832.0956,N,07659.6709,E,2,16,0.7,47.6,M,-88.1,M,,0000*55
$GNGLL,0832.0956,N,07659.6709,E,062539.000,A,D*4F
$GNGSA,A,3,02,06,17,19,28,24,05,12,13,25,,,1.1,0.7,0.9,1*3A
$GNGSA,A,3,02,03,04,05,06,07,,,,,,,1.1,0.7,0.9,4*3B
$GNRMC,062539.000,A,0832.0956,N,07659.6709,E,000.0,000.0,260719,,,D*73
$GNVTG,000.0,T,,M,000.0,N,000.0,K,D*16
$GNZDA,062539.000,26,07,2019,00,00*4A
$GNGGA,062540.000,0832.0956,N,07659.6709,E,2,16,0.7,47.6,M,-88.1,M,,0000*5B
$GNGLL,0832.0956,N,07659.6709,E,062540.000,A,D*41
$GNGSA,A,3,02,06,17,19,28,24,05,12,13,25,,,1.1,0.7,0.9,1*3A
$GNGSA,A,3,02,03,04,05,06,07,,,,,,,1.1,0.7,0.9,4*3B
$GNRMC,062540.000,A,0832.0956,N,07659.6709,E,000.0,000.0,260719,,,D*7D
$GNVTG,000.0,T,,M,000.0,N,000.0,K,D*16
$GNZDA,062540.000,26,07,2019,00,00*44
$GNGGA,062541.000,0832.0956,N,07659.6709,E,2,17,0.6,47.6,M,-88.1,M,,0000*5A
$GNGLL,0832.0956,N,07659.6709,E,062541.000,A,D*40
$GNGSA,A,3,02,06,17,19,28,24,15,05,12,13,25,,1.1,0.6,0.9,1*3F
$GNGSA,A,3,02,03,04,05,06,07,,,,,,,1.1,0.6,0.9,4*3A
$GPGSV,4,1,13,05,69,154,47,40,63,250,43,12,44,336,49,02,44,352,45,1*64
$GPGSV,4,2,13,24,32,247,34,19,19,063,25,06,15,029,48,13,14,171,31,1*64
$GPGSV,4,3,13,17,13,077,36,28,10,139,35,15,08,204,21,25,07,326,31,1*6A
$GPGSV,4,4,13,41,00,000,50,1*56
$GIGSV,2,1,07,03,76,151,47,02,65,258,43,05,52,062,49,04,40,135,45,4*7C
$GIGSV,2,2,07,06,38,261,39,07,29,100,45,01,00,000,43,4*47
$GNRMC,062541.000,A,0832.0956,N,07659.6709,E,000.0,000.0,260719,,,D*7C
$GNVTG,000.0,T,,M,000.0,N,000.0,K,D*16
$GNZDA,062541.000,26,07,2019,00,00*45
$PIRNSF,4,2,8B,4A,15,08,70,20,F2,45,BA,F8,04,99,79,4F,2B,AA,4E,97,D3,5B,FB,92,09,35,9E,B7,FF,77,71,4B,B4,2E,A0,D2,A9,44,1*75
$PIRNSF,6,2,8B,4A,15,08,08,30,11,B5,BC,30,04,23,F6,A7,2B,AD,8B,BB,54,F9,83,62,1C,B1,2D,6F,FF,07,E0,1D,FF,15,C3,04,55,50,0*7D
$PIRNSF,7,2,8B,4A,15,08,DD,18,6B,89,BC,30,01,2B,4E,83,2B,AB,10,FB,5B,CF,8B,AE,55,11,77,2F,FE,C3,60,1E,81,DE,41,60,65,10,0*79
$GNGGA,062542.000,0832.0956,N,07659.6709,E,2,16,0.7,47.6,M,-88.1,M,,0000*59
$GNGLL,0832.0956,N,07659.6709,E,062542.000,A,D*43
$GNGSA,A,3,02,06,17,19,28,24,05,12,13,25,,,1.1,0.7,0.9,1*3A
$GNGSA,A,3,02,03,04,05,06,07,,,,,,,1.1,0.7,0.9,4*3B
$GNRMC,062542.000,A,0832.0956,N,07659.6709,E,000.0,000.0,260719,,,D*7F
$GNVTG,000.0,T,,M,000.0,N,000.0,K,D*16
$GNZDA,062542.000,26,07,2019,00,00*46
$PIRNSF,3,2,8B,4A,15,0A,EB,A5,52,0D,BA,F8,03,FA,B9,17,2B,AB,DF,3E,F5,DC,83,C0,19,4C,B7,4B,FD,2A,D0,15,B4,76,D3,EB,3E,34,1*72
$PIRNSF,2,2,8B,4A,15,0B,D6,28,FC,A1,BC,30,04,78,69,A7,2B,AB,99,07,D3,12,C9,CA,10,E8,CA,8B,FF,74,01,4C,BF,F1,23,74,49,50,0*78
$PIRNSF,5,2,8B,4A,15,0A,88,A1,39,49,BC,30,03,E0,AA,CB,2B,AF,66,E5,D0,66,E8,8E,02,5C,CB,2F,FF,6E,61,4E,40,54,32,9B,5F,30,0*0B
$PIRNSF,1,4,8B,4A,15,79,45,55,55,55,55,55,55,55,55,55,55,55,55,55,55,55,55,55,55,55,55,55,55,55,55,55,55,55,05,44,F0,5C,0*08
$GNGGA,062543.000,0832.0956,N,07659.6709,E,2,16,0.7,47.6,M,-88.1,M,,0000*58
$GNGLL,0832.0956,N,07659.6709,E,062543.000,A,D*42
$GNGSA,A,3,02,06,17,19,28,24,05,12,13,25,,,1.1,0.7,0.9,1*3A
$GNGSA,A,3,02,03,04,05,06,07,,,,,,,1.1,0.7,0.9,4*3B
$GNRMC,062543.000,A,0832.0956,N,07659.6709,E,000.0,000.0,260719,,,D*7E
$GNVTG,000.0,T,,M,000.0,N,000.0,K,D*16
$GNZDA,062543.000,26,07,2019,00,00*47
$GNGGA,062544.000,0832.0956,N,07659.6709,E,2,17,0.6,47.6,M,-88.1,M,,0000*5F
$GNGLL,0832.0956,N,07659.6709,E,062544.000,A,D*45
$GNGSA,A,3,02,06,17,19,28,24,15,05,12,13,25,,1.1,0.6,0.9,1*3F
$GNGSA,A,3,02,03,04,05,06,07,,,,,,,1.1,0.6,0.9,4*3A
$GPGSV,4,1,13,05,69,154,47,40,63,250,43,12,44,336,49,02,44,352,45,1*64
$GPGSV,4,2,13,24,32,247,35,19,19,063,25,06,15,029,48,13,14,171,32,1*66
$GPGSV,4,3,13,17,13,077,37,28,10,139,36,15,08,204,23,25,07,326,31,1*6A
$GPGSV,4,4,13,41,00,000,50,1*56
$GIGSV,2,1,07,03,76,151,48,02,65,258,44,05,52,062,49,04,40,135,45,4*74
$GIGSV,2,2,07,06,38,261,40,07,29,100,45,01,00,000,43,4*49
$GNRMC,062544.000,A,0832.0956,N,07659.6709,E,000.0,000.0,260719,,,D*79
$GNVTG,000.0,T,,M,000.0,N,000.0,K,D*16
$GNZDA,062544.000,26,07,2019,00,00*40
$GNGGA,062545.000,0832.0956,N,07659.6709,E,2,17,0.6,47.6,M,-88.1,M,,0000*5E
$GNGLL,0832.0956,N,07659.6709,E,062545.000,A,D*44
$GNGSA,A,3,02,06,17,19,28,24,15,05,12,13,25,,1.1,0.6,0.9,1*3F
$GNGSA,A,3,02,03,04,05,06,07,,,,,,,1.1,0.6,0.9,4*3A
$GNRMC,062545.000,A,0832.0956,N,07659.6709,E,000.0,000.0,260719,,,D*78
$GNVTG,000.0,T,,M,000.0,N,000.0,K,D*16
$GNZDA,062545.000,26,07,2019,00,00*41
$GNGGA,062546.000,0832.0956,N,07659.6709,E,2,17,0.6,47.6,M,-88.1,M,,0000*5D
$GNGLL,0832.0956,N,07659.6709,E,062546.000,A,D*47
$GNGSA,A,3,02,06,17,19,28,24,15,05,12,13,25,,1.1,0.6,0.9,1*3F
$GNGSA,A,3,02,03,04,05,06,07,,,,,,,1.1,0.6,0.9,4*3A
$GNRMC,062546.000,A,0832.0956,N,07659.6709,E,000.0,000.0,260719,,,D*7B
$GNVTG,000.0,T,,M,000.0,N,000.0,K,D*16
$GNZDA,062546.000,26,07,2019,00,00*42
$GNGGA,062547.000,0832.0956,N,07659.6709,E,2,17,0.6,47.6,M,-88.1,M,,0000*5C
$GNGLL,0832.0956,N,07659.6709,E,062547.000,A,D*46
$GNGSA,A,3,02,06,17,19,28,24,15,05,12,13,25,,1.1,0.6,0.9,1*3F
$GNGSA,A,3,02,03,04,05,06,07,,,,,,,1.1,0.6,0.9,4*3A
$GPGSV,4,1,13,05,69,154,47,40,63,250,43,12,44,336,48,02,44,352,45,1*65
$GPGSV,4,2,13,24,32,246,35,19,19,063,25,06,15,029,48,13,14,171,32,1*67
$GPGSV,4,3,13,17,13,077,38,28,10,139,35,15,08,204,22,25,07,326,30,1*66
$GPGSV,4,4,13,41,00,000,50,1*56
$GIGSV,2,1,07,03,76,151,48,02,65,258,44,05,52,062,49,04,40,135,45,4*74
$GIGSV,2,2,07,06,38,261,39,07,29,100,45,01,00,000,44,4*40
$GNRMC,062547.000,A,0832.0956,N,07659.6709,E,000.0,000.0,260719,,,D*7A
$GNVTG,000.0,T,,M,000.0,N,000.0,K,D*16
$GNZDA,062547.000,26,07,2019,00,00*43
$GNGGA,062548.000,0832.0956,N,07659.6709,E,2,16,0.7,47.6,M,-88.1,M,,0000*53
$GNGLL,0832.0956,N,07659.6709,E,062548.000,A,D*49
$GNGSA,A,3,02,06,17,19,28,24,05,12,13,25,,,1.1,0.7,0.9,1*3A
$GNGSA,A,3,02,03,04,05,06,07,,,,,,,1.1,0.7,0.9,4*3B
$GNRMC,062548.000,A,0832.0956,N,07659.6709,E,000.0,000.0,260719,,,D*75
$GNVTG,000.0,T,,M,000.0,N,000.0,K,D*16
$GNZDA,062548.000,26,07,2019,00,00*4C
$GNGGA,062549.000,0832.0956,N,07659.6709,E,2,16,0.7,47.6,M,-88.1,M,,0000*52
$GNGLL,0832.0956,N,07659.6709,E,062549.000,A,D*48
$GNGSA,A,3,02,06,17,19,28,24,05,12,13,25,,,1.1,0.7,0.9,1*3A
$GNGSA,A,3,02,03,04,05,06,07,,,,,,,1.1,0.7,0.9,4*3B
$GNRMC,062549.000,A,0832.0956,N,07659.6709,E,000.0,000.0,260719,,,D*74
$GNVTG,000.0,T,,M,000.0,N,000.0,K,D*16
$GNZDA,062549.000,26,07,2019,00,00*4D
$GNGGA,062550.000,0832.0956,N,07659.6709,E,2,17,0.6,47.6,M,-88.1,M,,0000*5A
$GNGLL,0832.0956,N,07659.6709,E,062550.000,A,D*40
$GNGSA,A,3,02,06,17,19,28,24,15,05,12,13,25,,1.1,0.6,0.9,1*3F
$GNGSA,A,3,02,03,04,05,06,07,,,,,,,1.1,0.6,0.9,4*3A
$GPGSV,4,1,13,05,69,154,47,40,63,250,42,12,44,336,48,02,44,352,45,1*64
$GPGSV,4,2,13,24,32,246,35,19,19,063,26,06,15,029,48,13,14,171,32,1*64
$GPGSV,4,3,13,17,13,077,38,28,10,139,36,15,08,204,22,25,07,326,31,1*64
$GPGSV,4,4,13,41,00,000,50,1*56
$GIGSV,2,1,07,03,76,151,47,02,65,258,43,05,52,062,49,04,40,135,45,4*7C
$GIGSV,2,2,07,06,38,261,39,07,29,100,44,01,00,000,43,4*46
$GNRMC,062550.000,A,0832.0956,N,07659.6709,E,000.0,000.0,260719,,,D*7C
$GNVTG,000.0,T,,M,000.0,N,000.0,K,D*16
$GNZDA,062550.000,26,07,2019,00,00*45
$GNGGA,062551.000,0832.0956,N,07659.6709,E,2,17,0.6,47.6,M,-88.1,M,,0000*5B
$GNGLL,0832.0956,N,07659.6709,E,062551.000,A,D*41
$GNGSA,A,3,02,06,17,19,28,24,15,05,12,13,25,,1.1,0.6,0.9,1*3F
$GNGSA,A,3,02,03,04,05,06,07,,,,,,,1.1,0.6,0.9,4*3A
$GNRMC,062551.000,A,0832.0956,N,07659.6709,E,000.0,000.0,260719,,,D*7D
$GNVTG,000.0,T,,M,000.0,N,000.0,K,D*16
$GNZDA,062551.000,26,07,2019,00,00*44
$GNGGA,062552.000,0832.0956,N,07659.6709,E,2,17,0.6,47.6,M,-88.1,M,,0000*58
$GNGLL,0832.0956,N,07659.6709,E,062552.000,A,D*42
$GNGSA,A,3,02,06,17,19,28,24,15,05,12,13,25,,1.1,0.6,0.9,1*3F
$GNGSA,A,3,02,03,04,05,06,07,,,,,,,1.1,0.6,0.9,4*3A
$GNRMC,062552.000,A,0832.0956,N,07659.6709,E,000.0,000.0,260719,,,D*7E
$GNVTG,000.0,T,,M,000.0,N,000.0,K,D*16
$GNZDA,062552.000,26,07,2019,00,00*47
$GNGGA,062553.000,0832.0956,N,07659.6709,E,2,17,0.6,47.6,M,-88.1,M,,0000*59
$GNGLL,0832.0956,N,07659.6709,E,062553.000,A,D*43
$GNGSA,A,3,02,06,17,19,28,24,15,05,12,13,25,,1.1,0.6,0.9,1*3F
$GNGSA,A,3,02,03,04,05,06,07,,,,,,,1.1,0.6,0.9,4*3A
$GPGSV,4,1,13,05,69,154,47,40,63,250,43,12,44,336,48,02,44,352,45,1*65
$GPGSV,4,2,13,24,32,246,35,19,19,063,24,06,15,029,48,13,14,171,31,1*65
$GPGSV,4,3,13,17,13,077,38,28,10,139,36,15,08,204,24,25,07,326,31,1*62
$GPGSV,4,4,13,41,00,000,50,1*56
$GIGSV,2,1,07,03,76,151,48,02,65,258,44,05,52,062,50,04,40,135,46,4*7F
$GIGSV,2,2,07,06,38,261,40,07,29,100,46,01,00,000,44,4*4D
$GNRMC,062553.000,A,0832.0956,N,07659.6709,E,000.0,000.0,260719,,,D*7F
$GNVTG,000.0,T,,M,000.0,N,000.0,K,D*16
$GNZDA,062553.000,26,07,2019,00,00*46
$PIRNSF,3,3,8B,4A,15,91,AF,FF,6F,F7,00,12,69,8A,03,F8,97,12,1F,DF,04,2B,46,98,A0,3D,00,00,00,00,00,00,00,00,0C,DC,7B,3C,0*79
$PIRNSF,2,3,8B,4A,15,90,50,18,F0,79,84,1D,21,E9,1F,49,9A,25,C1,35,0A,24,57,42,FC,1A,E0,E7,47,9A,41,D2,30,00,08,48,B5,B0,0*07
$PIRNSF,5,3,8B,4A,15,90,50,18,34,5D,A2,FD,19,68,BF,43,DA,12,D0,6E,83,78,05,C1,AE,35,69,6B,48,DA,36,D1,30,00,14,17,34,1C,1*00
$PIRNSF,4,3,8B,4A,15,91,AF,FF,6F,F7,00,12,69,8A,03,F8,97,12,FF,6D,FE,B6,26,98,A0,3C,00,00,00,00,00,00,00,00,11,06,A5,60,0*7E
$GNGGA,062554.000,0832.0956,N,07659.6709,E,2,17,0.6,47.6,M,-88.1,M,,0000*5E
$GNGLL,0832.0956,N,07659.6709,E,062554.000,A,D*44
$GNGSA,A,3,02,06,17,19,28,24,15,05,12,13,25,,1.1,0.6,0.9,1*3F
$GNGSA,A,3,02,03,04,05,06,07,,,,,,,1.1,0.6,0.9,4*3A
$GNRMC,062554.000,A,0832.0956,N,07659.6709,E,000.0,000.0,260719,,,D*78
$GNVTG,000.0,T,,M,000.0,N,000.0,K,D*16
$GNZDA,062554.000,26,07,2019,00,00*41
$PIRNSF,6,3,8B,4A,15,90,50,19,34,4B,82,9B,17,50,C6,C6,B8,38,D1,8E,8D,34,6F,A3,CD,17,60,C3,06,B8,37,C1,D0,00,1A,1C,AB,88,0*0D
$PIRNSF,7,3,8B,4A,15,90,50,18,34,5D,A2,FD,19,68,BF,43,DA,12,D0,6E,83,78,05,C1,AE,35,69,6B,48,DA,36,D1,30,00,1E,3C,60,28,0*7D
$PIRNSF,1,4,8B,4A,15,F9,45,55,55,55,55,55,55,55,55,55,55,55,55,55,55,55,55,55,55,55,55,55,55,55,55,55,55,55,07,0E,F0,5C,0*0E
$GNGGA,062555.000,0832.0956,N,07659.6709,E,2,17,0.6,47.6,M,-88.1,M,,0000*5F
$GNGLL,0832.0956,N,07659.6709,E,062555.000,A,D*45
$GNGSA,A,3,02,06,17,19,28,24,15,05,12,13,25,,1.1,0.6,0.9,1*3F
$GNGSA,A,3,02,03,04,05,06,07,,,,,,,1.1,0.6,0.9,4*3A
$GNRMC,062555.000,A,0832.0956,N,07659.6709,E,000.0,000.0,260719,,,D*79
$GNVTG,000.0,T,,M,000.0,N,000.0,K,D*16
$GNZDA,062555.000,26,07,2019,00,00*40
$GNGGA,062556.000,0832.0956,N,07659.6709,E,2,17,0.6,47.6,M,-88.1,M,,0000*5C
$GNGLL,0832.0956,N,07659.6709,E,062556.000,A,D*46
$GNGSA,A,3,02,06,17,19,28,24,15,05,12,13,25,,1.1,0.6,0.9,1*3F
$GNGSA,A,3,02,03,04,05,06,07,,,,,,,1.1,0.6,0.9,4*3A
$GPGSV,4,1,13,05,69,154,47,40,63,250,42,12,44,336,48,02,44,352,45,1*64
$GPGSV,4,2,13,24,32,246,35,19,19,063,25,06,15,029,48,13,14,171,31,1*64
$GPGSV,4,3,13,17,13,077,37,28,10,139,35,15,08,204,24,25,07,326,30,1*6F
$GPGSV,4,4,13,41,00,000,50,1*56
$GIGSV,2,1,07,03,76,151,47,02,65,258,44,05,52,062,49,04,40,135,45,4*7B
$GIGSV,2,2,07,06,38,261,40,07,29,100,45,01,00,000,43,4*49
$GNRMC,062556.000,A,0832.0956,N,07659.6709,E,000.0,000.0,260719,,,D*7A
$GNVTG,000.0,T,,M,000.0,N,000.0,K,D*16
$GNZDA,062556.000,26,07,2019,00,00*43
$GNGGA,062557.000,0832.0956,N,07659.6709,E,2,17,0.6,47.6,M,-88.1,M,,0000*5D
$GNGLL,0832.0956,N,07659.6709,E,062557.000,A,D*47
$GNGSA,A,3,02,06,17,19,28,24,15,05,12,13,25,,1.1,0.6,0.9,1*3F
$GNGSA,A,3,02,03,04,05,06,07,,,,,,,1.1,0.6,0.9,4*3A
$GNRMC,062557.000,A,0832.0956,N,07659.6709,E,000.0,000.0,260719,,,D*7B
$GNVTG,000.0,T,,M,000.0,N,000.0,K,D*16
$GNZDA,062557.000,26,07,2019,00,00*42
$GNGGA,062558.000,0832.0956,N,07659.6709,E,2,17,0.6,47.6,M,-88.1,M,,0000*52
$GNGLL,0832.0956,N,07659.6709,E,062558.000,A,D*48
$GNGSA,A,3,02,06,17,19,28,24,15,05,12,13,25,,1.1,0.6,0.9,1*3F
$GNGSA,A,3,02,03,04,05,06,07,,,,,,,1.1,0.6,0.9,4*3A
$GNRMC,062558.000,A,0832.0956,N,07659.6709,E,000.0,000.0,260719,,,D*74
$GNVTG,000.0,T,,M,000.0,N,000.0,K,D*16
$GNZDA,062558.000,26,07,2019,00,00*4D
$GNGGA,062559.000,0832.0956,N,07659.6709,E,2,17,0.6,47.6,M,-88.1,M,,0000*53
$GNGLL,0832.0956,N,07659.6709,E,062559.000,A,D*49
$GNGSA,A,3,02,06,17,19,28,24,15,05,12,13,25,,1.1,0.6,0.9,1*3F
$GNGSA,A,3,02,03,04,05,06,07,,,,,,,1.1,0.6,0.9,4*3A
$GPGSV,4,1,13,05,69,154,47,40,63,250,42,12,44,336,48,02,44,352,44,1*65
$GPGSV,4,2,13,24,32,246,35,19,19,063,25,06,15,030,47,13,14,171,31,1*63
$GPGSV,4,3,13,17,13,077,36,28,10,139,35,15,08,204,24,25,07,326,30,1*6E
$GPGSV,4,4,13,41,00,000,49,1*5E
$GIGSV,2,1,07,03,76,151,48,02,65,258,44,05,52,062,49,04,40,135,45,4*74
$GIGSV,2,2,07,06,38,261,39,07,29,100,45,01,00,000,44,4*40
$GNRMC,062559.000,A,0832.0956,N,07659.6709,E,000.0,000.0,260719,,,D*75
$GNVTG,000.0,T,,M,000.0,N,000.0,K,D*16
$GNZDA,062559.000,26,07,2019,00,00*4C
$GNGGA,062600.000,0832.0956,N,07659.6709,E,2,17,0.6,47.6,M,-88.1,M,,0000*5C
$GNGLL,0832.0956,N,07659.6709,E,062600.000,A,D*46
$GNGSA,A,3,02,06,17,19,28,24,15,05,12,13,25,,1.1,0.6,0.9,1*3F
$GNGSA,A,3,02,03,04,05,06,07,,,,,,,1.1,0.6,0.9,4*3A
$GNRMC,062600.000,A,0832.0956,N,07659.6709,E,000.0,000.0,260719,,,D*7A
$GNVTG,000.0,T,,M,000.0,N,000.0,K,D*16
$GNZDA,062600.000,26,07,2019,00,00*43
$GNGGA,062601.000,0832.0956,N,07659.6709,E,2,17,0.6,47.6,M,-88.1,M,,0000*5D
$GNGLL,0832.0956,N,07659.6709,E,062601.000,A,D*47
$GNGSA,A,3,02,06,17,19,28,24,15,05,12,13,25,,1.1,0.6,0.9,1*3F
$GNGSA,A,3,02,03,04,05,06,07,,,,,,,1.1,0.6,0.9,4*3A
$GNRMC,062601.000,A,0832.0956,N,07659.6709,E,000.0,000.0,260719,,,D*7B
$GNVTG,000.0,T,,M,000.0,N,000.0,K,D*16
$GNZDA,062601.000,26,07,2019,00,00*42
$GNGGA,062602.000,0832.0956,N,07659.6709,E,2,17,0.6,47.6,M,-88.1,M,,0000*5E
$GNGLL,0832.0956,N,07659.6709,E,062602.000,A,D*44
$GNGSA,A,3,02,06,17,19,28,24,15,05,12,13,25,,1.1,0.6,0.9,1*3F
$GNGSA,A,3,02,03,04,05,06,07,,,,,,,1.1,0.6,0.9,4*3A
$GPGSV,4,1,13,05,69,154,47,40,63,250,43,12,44,336,48,02,44,352,45,1*65
$GPGSV,4,2,13,24,32,246,35,19,19,063,25,06,15,030,47,13,14,171,31,1*63
$GPGSV,4,3,13,17,13,077,37,28,10,139,35,15,08,204,25,25,07,326,31,1*6F
$GPGSV,4,4,13,41,00,000,50,1*56
$GIGSV,2,1,07,03,76,151,47,02,65,258,44,05,52,062,49,04,40,135,45,4*7B
$GIGSV,2,2,07,06,38,261,39,07,29,100,45,01,00,000,43,4*47
$GNRMC,062602.000,A,0832.0956,N,07659.6709,E,000.0,000.0,260719,,,D*78
$GNVTG,000.0,T,,M,000.0,N,000.0,K,D*16
$GNZDA,062602.000,26,07,2019,00,00*41
$GNGGA,062603.000,0832.0956,N,07659.6709,E,2,17,0.6,47.6,M,-88.1,M,,0000*5F
$GNGLL,0832.0956,N,07659.6709,E,062603.000,A,D*45
$GNGSA,A,3,02,06,17,19,28,24,15,05,12,13,25,,1.1,0.6,0.9,1*3F
$GNGSA,A,3,02,03,04,05,06,07,,,,,,,1.1,0.6,0.9,4*3A
$GNRMC,062603.000,A,0832.0956,N,07659.6709,E,000.0,000.0,260719,,,D*79
$GNVTG,000.0,T,,M,000.0,N,000.0,K,D*16
$GNZDA,062603.000,26,07,2019,00,00*40
$GNGGA,062604.000,0832.0956,N,07659.6709,E,2,17,0.6,47.6,M,-88.1,M,,0000*58
$GNGLL,0832.0956,N,07659.6709,E,062604.000,A,D*42
$GNGSA,A,3,02,06,17,19,28,24,15,05,12,13,25,,1.1,0.6,0.9,1*3F
$GNGSA,A,3,02,03,04,05,06,07,,,,,,,1.1,0.6,0.9,4*3A
$GNRMC,062604.000,A,0832.0956,N,07659.6709,E,000.0,000.0,260719,,,D*7E
$GNVTG,000.0,T,,M,000.0,N,000.0,K,D*16
$GNZDA,062604.000,26,07,2019,00,00*47
$GNGGA,062605.000,0832.0956,N,07659.6709,E,2,17,0.6,47.6,M,-88.1,M,,0000*59
$GNGLL,0832.0956,N,07659.6709,E,062605.000,A,D*43
$GNGSA,A,3,02,06,17,19,28,24,15,05,12,13,25,,1.1,0.6,0.9,1*3F
$GNGSA,A,3,02,03,04,05,06,07,,,,,,,1.1,0.6,0.9,4*3A
$GPGSV,4,1,13,05,69,154,47,40,63,250,43,12,45,336,48,02,44,352,45,1*64
$GPGSV,4,2,13,24,32,246,36,19,19,063,25,06,15,030,47,13,14,170,31,1*61
$GPGSV,4,3,13,17,13,077,36,28,10,139,35,15,08,204,24,25,07,326,31,1*6F
$GPGSV,4,4,13,41,00,000,50,1*56
$GIGSV,2,1,07,03,76,151,48,02,65,258,44,05,52,062,49,04,40,135,45,4*74
$GIGSV,2,2,07,06,38,261,39,07,29,100,45,01,00,000,44,4*40
$GNRMC,062605.000,A,0832.0956,N,07659.6709,E,000.0,000.0,260719,,,D*7F
$GNVTG,000.0,T,,M,000.0,N,000.0,K,D*16
$GNZDA,062605.000,26,07,2019,00,00*46
$PIRNSF,7,4,8B,4A,16,18,50,18,74,3B,A2,3D,0D,E8,BF,86,FA,57,D2,96,91,F0,73,82,FD,16,68,C3,46,7A,3E,D2,50,00,1D,E5,2C,A8,0*7C
$PIRNSF,3,4,8B,4A,16,19,AF,FF,6F,F7,00,12,69,8A,03,F8,97,12,FF,09,FE,98,06,98,A0,3F,80,00,00,00,00,00,00,00,0C,84,99,2C,0*06
$PIRNSF,2,4,8B,4A,16,18,50,19,34,4B,82,9B,17,50,C6,C6,B8,38,D1,8E,8D,34,6F,A3,CD,17,60,C3,06,B8,37,C1,D0,00,0B,D2,52,8C,1*75
$PIRNSF,5,4,8B,4A,16,18,50,18,74,3B,A2,3D,0D,E8,BF,86,FA,57,D2,96,91,F0,73,82,FD,16,68,C3,46,7A,3E,D2,50,00,17,CE,78,9C,1*07
