$GNGGA,063852.000,0832.0956,N,07659.6709,E,2,17,0.6,47.6,M,-88.1,M,,0000*54
$GNGLL,0832.0956,N,07659.6709,E,063852.000,A,D*4E
$GNGSA,A,3,02,06,17,19,28,24,15,05,12,13,25,,1.1,0.6,0.9,1*3F
$GNGSA,A,3,02,03,04,05,06,07,,,,,,,1.1,0.6,0.9,4*3A
$GNRMC,063852.000,A,0832.0956,N,07659.6709,E,000.0,000.0,260719,,,D*72
$GNVTG,000.0,T,,M,000.0,N,000.0,K,D*16
$GNZDA,063852.000,26,07,2019,00,00*4B
$GNGGA,063853.000,0832.0956,N,07659.6709,E,2,17,0.6,47.6,M,-88.1,M,,0000*55
$GNGLL,0832.0956,N,07659.6709,E,063853.000,A,D*4F
$GNGSA,A,3,02,06,17,19,28,24,15,05,12,13,25,,1.1,0.6,0.9,1*3F
$GNGSA,A,3,02,03,04,05,06,07,,,,,,,1.1,0.6,0.9,4*3A
$GPGSV,4,1,13,05,75,140,48,40,63,250,35,12,51,335,49,02,40,357,46,1*67
$GPGSV,4,2,13,24,30,240,36,19,18,069,25,13,15,165,35,25,12,326,36,1*6B
$GPGSV,4,3,13,06,12,033,40,17,12,083,45,15,10,199,33,28,05,142,35,1*65
$GPGSV,4,4,13,41,00,000,50,1*56
$GIGSV,2,1,07,03,76,151,48,02,64,254,44,05,52,060,49,04,40,136,45,4*78
$GIGSV,2,2,07,06,38,260,39,07,29,099,45,01,00,000,43,4*47
$GNRMC,063853.000,A,0832.0956,N,07659.6709,E,000.0,000.0,260719,,,D*73
$GNVTG,000.0,T,,M,000.0,N,000.0,K,D*16
$GNZDA,063853.000,26,07,2019,00,00*4A
$PIRNSF,7,4,8B,4A,36,18,50,18,34,61,A2,FD,19,68,BF,43,DA,11,D0,8E,83,38,05,C1,AE,35,69,6B,48,DA,34,D1,28,00,1C,D0,B1,C0,0*01
$PIRNSF,3,4,8B,4A,36,18,70,3C,47,45,A5,E0,53,30,48,00,47,2B,AB,07,D3,0F,86,11,6F,7A,C6,1B,6F,D9,FF,60,80,00,0C,83,E2,28,0*0B
$PIRNSF,2,4,8B,4A,36,18,50,18,F0,79,84,2D,22,69,23,49,BA,25,C1,3D,0A,24,59,43,0C,1A,E0,EB,47,BA,42,D2,38,00,0A,63,0F,08,0*79
$PIRNSF,5,4,8B,4A,36,18,50,18,34,61,A2,FD,19,68,BF,43,DA,11,D0,8E,83,38,05,C1,AE,35,69,6B,48,DA,34,D1,28,00,16,FB,E5,F4,0*04
$PIRNSF,4,4,8B,4A,36,19,25,55,55,55,55,55,55,55,55,55,55,55,55,55,55,55,55,55,55,55,55,55,55,55,55,55,55,55,11,5C,5D,D8,0*72
$GNGGA,063854.000,0832.0956,N,07659.6709,E,2,17,0.6,47.6,M,-88.1,M,,0000*52
$GNGLL,0832.0956,N,07659.6709,E,063854.000,A,D*48
$GNGSA,A,3,02,06,17,19,28,24,15,05,12,13,25,,1.1,0.6,0.9,1*3F
$GNGSA,A,3,02,03,04,05,06,07,,,,,,,1.1,0.6,0.9,4*3A
$GNRMC,063854.000,A,0832.0956,N,07659.6709,E,000.0,000.0,260719,,,D*74
$GNVTG,000.0,T,,M,000.0,N,000.0,K,D*16
$GNZDA,063854.000,26,07,2019,00,00*4D
$PIRNSF,1,4,8B,4A,36,79,45,55,55,55,55,55,55,55,55,55,55,55,55,55,55,55,55,55,55,55,55,55,55,55,55,55,55,55,04,34,F0,5C,0*0F
$PIRNSF,6,4,8B,4A,36,18,50,18,74,39,A2,2D,0D,E8,BB,87,3A,57,D2,96,91,F0,73,82,FD,15,E8,C3,46,7A,3D,D2,40,00,1A,53,A7,78,0*07
$GNGGA,063855.000,0832.0956,N,07659.6709,E,2,17,0.6,47.6,M,-88.1,M,,0000*53
$GNGLL,0832.0956,N,07659.6709,E,063855.000,A,D*49
$GNGSA,A,3,02,06,17,19,28,24,15,05,12,13,25,,1.1,0.6,0.9,1*3F
$GNGSA,A,3,02,03,04,05,06,07,,,,,,,1.1,0.6,0.9,4*3A
$GNRMC,063855.000,A,0832.0956,N,07659.6709,E,000.0,000.0,260719,,,D*75
$GNVTG,000.0,T,,M,000.0,N,000.0,K,D*16
$GNZDA,063855.000,26,07,2019,00,00*4C
$GNGGA,063856.000,0832.0956,N,07659.6709,E,2,17,0.6,47.6,M,-88.1,M,,0000*50
$GNGLL,0832.0956,N,07659.6709,E,063856.000,A,D*4A
$GNGSA,A,3,02,06,17,19,28,24,15,05,12,13,25,,1.1,0.6,0.9,1*3F
$GNGSA,A,3,02,03,04,05,06,07,,,,,,,1.1,0.6,0.9,4*3A
$GPGSV,4,1,13,05,75,140,48,40,63,250,35,12,51,335,49,02,40,357,46,1*67
$GPGSV,4,2,13,24,30,240,37,19,18,069,25,13,15,165,34,25,12,326,36,1*6B
$GPGSV,4,3,13,06,12,033,40,17,12,083,45,15,10,199,33,28,05,142,35,1*65
$GPGSV,4,4,13,41,00,000,50,1*56
$GIGSV,2,1,07,03,76,151,48,02,64,254,44,05,52,060,49,04,40,136,45,4*78
$GIGSV,2,2,07,06,38,260,39,07,29,099,44,01,00,000,44,4*41
$GNRMC,063856.000,A,0832.0956,N,07659.6709,E,000.0,000.0,260719,,,D*76
$GNVTG,000.0,T,,M,000.0,N,000.0,K,D*16
$GNZDA,063856.000,26,07,2019,00,00*4F
$GNGGA,063857.000,0832.0956,N,07659.6709,E,2,17,0.6,47.6,M,-88.1,M,,0000*51
$GNGLL,0832.0956,N,07659.6709,E,063857.000,A,D*4B
$GNGSA,A,3,02,06,17,19,28,24,15,05,12,13,25,,1.1,0.6,0.9,1*3F
$GNGSA,A,3,02,03,04,05,06,07,,,,,,,1.1,0.6,0.9,4*3A
$GNRMC,063857.000,A,0832.0956,N,07659.6709,E,000.0,000.0,260719,,,D*77
$GNVTG,000.0,T,,M,000.0,N,000.0,K,D*16
$GNZDA,063857.000,26,07,2019,00,00*4E
$GNGGA,063858.000,0832.0956,N,07659.6709,E,2,17,0.6,47.6,M,-88.1,M,,0000*5E
$GNGLL,0832.0956,N,07659.6709,E,063858.000,A,D*44
$GNGSA,A,3,02,06,17,19,28,24,15,05,12,13,25,,1.1,0.6,0.9,1*3F
$GNGSA,A,3,02,03,04,05,06,07,,,,,,,1.1,0.6,0.9,4*3A
$GNRMC,063858.000,A,0832.0956,N,07659.6709,E,000.0,000.0,260719,,,D*78
$GNVTG,000.0,T,,M,000.0,N,000.0,K,D*16
$GNZDA,063858.000,26,07,2019,00,00*41
$GNGGA,063859.000,0832.0956,N,07659.6709,E,2,17,0.6,47.6,M,-88.1,M,,0000*5F
$GNGLL,0832.0956,N,07659.6709,E,063859.000,A,D*45
$GNGSA,A,3,02,06,17,19,28,24,15,05,12,13,25,,1.1,0.6,0.9,1*3F
$GNGSA,A,3,02,03,04,05,06,07,,,,,,,1.1,0.6,0.9,4*3A
$GPGSV,3,1,12,05,75,140,48,12,51,335,49,02,40,357,46,24,30,240,36,1*67
$GPGSV,3,2,12,19,18,069,28,13,15,165,35,25,12,326,37,17,12,083,45,1*68
$GPGSV,3,3,12,06,12,033,40,15,10,199,33,28,05,142,36,41,00,000,50,1*6F
$GIGSV,2,1,07,03,76,151,48,02,64,254,44,05,52,060,49,04,40,136,45,4*78
$GIGSV,2,2,07,06,38,260,39,07,29,099,45,01,00,000,44,4*40
$GNRMC,063859.000,A,0832.0956,N,07659.6709,E,000.0,000.0,260719,,,D*79
$GNVTG,000.0,T,,M,000.0,N,000.0,K,D*16
$GNZDA,063859.000,26,07,2019,00,00*40
$GNGGA,063900.000,0832.0956,N,07659.6709,E,2,17,0.6,47.6,M,-88.1,M,,0000*52
$GNGLL,0832.0956,N,07659.6709,E,063900.000,A,D*48
$GNGSA,A,3,02,06,17,19,28,24,15,05,12,13,25,,1.1,0.6,0.9,1*3F
$GNGSA,A,3,02,03,04,05,06,07,,,,,,,1.1,0.6,0.9,4*3A
$GNRMC,063900.000,A,0832.0956,N,07659.6709,E,000.0,000.0,260719,,,D*74
$GNVTG,000.0,T,,M,000.0,N,000.0,K,D*16
$GNZDA,063900.000,26,07,2019,00,00*4D
$GNGGA,063901.000,0832.0956,N,07659.6709,E,2,17,0.6,47.6,M,-88.1,M,,0000*53
$GNGLL,0832.0956,N,07659.6709,E,063901.000,A,D*49
$GNGSA,A,3,02,06,17,19,28,24,15,05,12,13,25,,1.1,0.6,0.9,1*3F
$GNGSA,A,3,02,03,04,05,06,07,,,,,,,1.1,0.6,0.9,4*3A
$GNRMC,063901.000,A,0832.0956,N,07659.6709,E,000.0,000.0,260719,,,D*75
$GNVTG,000.0,T,,M,000.0,N,000.0,K,D*16
$GNZDA,063901.000,26,07,2019,00,00*4C
$GNGGA,063902.000,0832.0956,N,07659.6709,E,2,17,0.6,47.6,M,-88.1,M,,0000*50
$GNGLL,0832.0956,N,07659.6709,E,063902.000,A,D*4A
$GNGSA,A,3,02,06,17,19,28,24,15,05,12,13,25,,1.1,0.6,0.9,1*3F
$GNGSA,A,3,02,03,04,05,06,07,,,,,,,1.1,0.6,0.9,4*3A
$GPGSV,3,1,12,05,75,140,48,12,51,335,49,02,40,357,46,24,30,240,37,1*66
$GPGSV,3,2,12,19,18,069,30,13,15,165,35,25,12,326,38,17,12,083,44,1*6F
$GPGSV,3,3,12,06,12,033,40,15,10,199,33,28,05,142,36,41,00,000,50,1*6F
$GIGSV,2,1,07,03,76,151,48,02,64,254,44,05,52,060,50,04,40,136,46,4*73
$GIGSV,2,2,07,06,38,260,40,07,29,099,45,01,00,000,44,4*4E
$GNRMC,063902.000,A,0832.0956,N,07659.6709,E,000.0,000.0,260719,,,D*76
$GNVTG,000.0,T,,M,000.0,N,000.0,K,D*16
$GNZDA,063902.000,26,07,2019,00,00*4F
$GNGGA,063903.000,0832.0956,N,07659.6709,E,2,17,0.6,47.6,M,-88.1,M,,0000*51
$GNGLL,0832.0956,N,07659.6709,E,063903.000,A,D*4B
$GNGSA,A,3,02,06,17,19,28,24,15,05,12,13,25,,1.1,0.6,0.9,1*3F
$GNGSA,A,3,02,03,04,05,06,07,,,,,,,1.1,0.6,0.9,4*3A
$GNRMC,063903.000,A,0832.0956,N,07659.6709,E,000.0,000.0,260719,,,D*77
$GNVTG,000.0,T,,M,000.0,N,000.0,K,D*16
$GNZDA,063903.000,26,07,2019,00,00*4E
$GNGGA,063904.000,0832.0956,N,07659.6709,E,2,17,0.6,47.6,M,-88.1,M,,0000*56
$GNGLL,0832.0956,N,07659.6709,E,063904.000,A,D*4C
$GNGSA,A,3,02,06,17,19,28,24,15,05,12,13,25,,1.1,0.6,0.9,1*3F
$GNGSA,A,3,02,03,04,05,06,07,,,,,,,1.1,0.6,0.9,4*3A
$GNRMC,063904.000,A,0832.0956,N,07659.6709,E,000.0,000.0,260719,,,D*70
$GNVTG,000.0,T,,M,000.0,N,000.0,K,D*16
$GNZDA,063904.000,26,07,2019,00,00*49
$GNGGA,063905.000,0832.0956,N,07659.6709,E,2,17,0.6,47.6,M,-88.1,M,,0000*57
$GNGLL,0832.0956,N,07659.6709,E,063905.000,A,D*4D
$GNGSA,A,3,02,06,17,19,28,24,15,05,12,13,25,,1.1,0.6,0.9,1*3F
$GNGSA,A,3,02,03,04,05,06,07,,,,,,,1.1,0.6,0.9,4*3A
$GPGSV,3,1,12,05,75,140,48,12,51,335,49,02,40,357,46,24,30,240,38,1*69
$GPGSV,3,2,12,19,18,069,31,13,15,165,34,25,12,326,38,17,12,083,44,1*6F
$GPGSV,3,3,12,06,12,033,40,15,10,199,34,28,05,142,35,41,00,000,50,1*6B
$GIGSV,2,1,07,03,76,151,48,02,64,254,44,05,52,060,49,04,40,136,45,4*78
$GIGSV,2,2,07,06,38,260,39,07,29,099,45,01,00,000,44,4*40
$GNRMC,063905.000,A,0832.0956,N,07659.6709,E,000.0,000.0,260719,,,D*71
$GNVTG,000.0,T,,M,000.0,N,000.0,K,D*16
$GNZDA,063905.000,26,07,2019,00,00*48
$PIRNSF,6,1,8B,4A,36,80,0F,2A,6E,AC,07,D4,00,1B,D1,7F,00,11,50,BB,F8,C0,D7,83,A0,80,01,FF,FD,CB,4C,32,5F,A5,C1,63,06,98,0*77
$PIRNSF,7,1,8B,4A,36,80,0F,16,14,E4,14,FC,00,1B,D1,7F,40,16,62,BB,F8,C0,A4,E2,6E,7F,FC,00,12,DD,9A,24,D7,C6,F3,9E,BA,BC,0*05
$PIRNSF,3,1,8B,4A,36,80,0F,DD,06,C3,F4,A4,00,5B,AF,BF,40,30,09,03,F8,CE,CA,C2,8B,00,14,80,24,DA,89,BB,FF,CE,01,B2,C7,C0,0*7C
$GNGGA,063906.000,0832.0956,N,07659.6709,E,2,17,0.6,47.6,M,-88.1,M,,0000*54
$GNGLL,0832.0956,N,07659.6709,E,063906.000,A,D*4E
$GNGSA,A,3,02,06,17,19,28,24,15,05,12,13,25,,1.1,0.6,0.9,1*3F
$GNGSA,A,3,02,03,04,05,06,07,,,,,,,1.1,0.6,0.9,4*3A
$GNRMC,063906.000,A,0832.0956,N,07659.6709,E,000.0,000.0,260719,,,D*72
$GNVTG,000.0,T,,M,000.0,N,000.0,K,D*16
$GNZDA,063906.000,26,07,2019,00,00*4B
$PIRNSF,2,1,8B,4A,36,80,0F,F5,C1,3B,FB,5C,00,1B,D1,7F,00,08,F2,BB,F8,C2,2E,5E,D7,40,05,7F,D5,1C,E2,7F,B3,E9,83,41,F8,D8,0*7D
$PIRNSF,5,1,8B,4A,36,80,0F,19,06,8C,0E,9C,00,5B,D1,7F,C0,0A,01,BB,F8,C0,89,C0,A0,C0,12,80,39,02,7E,1D,78,69,81,28,3B,40,0*79
$PIRNSF,4,1,8B,4A,36,80,0F,17,83,CC,00,20,00,1B,AF,BF,40,09,81,03,F8,C1,A3,9F,60,40,12,FF,FF,12,D4,5E,43,DB,A2,0C,C5,E8,0*0C
$PIRNSF,1,4,8B,4A,36,F9,45,55,55,55,55,55,55,55,55,55,55,55,55,55,55,55,55,55,55,55,55,55,55,55,55,55,55,55,06,7E,F0,5C,0*09
$GNGGA,063907.000,0832.0956,N,07659.6709,E,2,17,0.6,47.6,M,-88.1,M,,0000*55
$GNGLL,0832.0956,N,07659.6709,E,063907.000,A,D*4F
$GNGSA,A,3,02,06,17,19,28,24,15,05,12,13,25,,1.1,0.6,0.9,1*3F
$GNGSA,A,3,02,03,04,05,06,07,,,,,,,1.1,0.6,0.9,4*3A
$GNRMC,063907.000,A,0832.0956,N,07659.6709,E,000.0,000.0,260719,,,D*73
$GNVTG,000.0,T,,M,000.0,N,000.0,K,D*16
$GNZDA,063907.000,26,07,2019,00,00*4A
$GNGGA,063908.000,0832.0956,N,07659.6709,E,2,17,0.6,47.6,M,-88.1,M,,0000*5A
$GNGLL,0832.0956,N,07659.6709,E,063908.000,A,D*40
$GNGSA,A,3,02,06,17,19,28,24,15,05,12,13,25,,1.1,0.6,0.9,1*3F
$GNGSA,A,3,02,03,04,05,06,07,,,,,,,1.1,0.6,0.9,4*3A
$GPGSV,3,1,12,05,75,140,48,12,51,335,49,02,40,357,46,24,30,240,38,1*69
$GPGSV,3,2,12,19,18,070,31,13,15,165,33,25,12,326,37,17,12,083,44,1*6F
$GPGSV,3,3,12,06,12,033,40,15,10,199,34,28,05,142,35,41,00,000,50,1*6B
$GIGSV,2,1,07,03,76,151,48,02,64,254,44,05,52,060,50,04,40,136,45,4*70
$GIGSV,2,2,07,06,38,260,40,07,29,099,45,01,00,000,44,4*4E
$GNRMC,063908.000,A,0832.0956,N,07659.6709,E,000.0,000.0,260719,,,D*7C
$GNVTG,000.0,T,,M,000.0,N,000.0,K,D*16
$GNZDA,063908.000,26,07,2019,00,00*45
$GNGGA,063909.000,0832.0956,N,07659.6709,E,2,17,0.6,47.6,M,-88.1,M,,0000*5B
$GNGLL,0832.0956,N,07659.6709,E,063909.000,A,D*41
$GNGSA,A,3,02,06,17,19,28,24,15,05,12,13,25,,1.1,0.6,0.9,1*3F
$GNGSA,A,3,02,03,04,05,06,07,,,,,,,1.1,0.6,0.9,4*3A
$GNRMC,063909.000,A,0832.0956,N,07659.6709,E,000.0,000.0,260719,,,D*7D
$GNVTG,000.0,T,,M,000.0,N,000.0,K,D*16
$GNZDA,063909.000,26,07,2019,00,00*44
$GNGGA,063910.000,0832.0956,N,07659.6709,E,2,17,0.6,47.6,M,-88.1,M,,0000*53
$GNGLL,0832.0956,N,07659.6709,E,063910.000,A,D*49
$GNGSA,A,3,02,06,17,19,28,24,15,05,12,13,25,,1.1,0.6,0.9,1*3F
$GNGSA,A,3,02,03,04,05,06,07,,,,,,,1.1,0.6,0.9,4*3A
$GNRMC,063910.000,A,0832.0956,N,07659.6709,E,000.0,000.0,260719,,,D*75
$GNVTG,000.0,T,,M,000.0,N,000.0,K,D*16
$GNZDA,063910.000,26,07,2019,00,00*4C
$GNGGA,063911.000,0832.0956,N,07659.6709,E,2,17,0.6,47.6,M,-88.1,M,,0000*52
$GNGLL,0832.0956,N,07659.6709,E,063911.000,A,D*48
$GNGSA,A,3,02,06,17,19,28,24,15,05,12,13,25,,1.1,0.6,0.9,1*3F
$GNGSA,A,3,02,03,04,05,06,07,,,,,,,1.1,0.6,0.9,4*3A
$GPGSV,3,1,12,05,75,140,48,12,51,335,49,02,40,357,45,24,30,240,37,1*65
$GPGSV,3,2,12,19,18,070,33,13,15,165,34,25,12,326,37,17,12,083,43,1*6D
$GPGSV,3,3,12,06,12,033,40,15,10,199,34,28,05,142,34,41,00,000,50,1*6A
$GIGSV,2,1,07,03,76,151,48,02,64,254,44,05,52,060,49,04,40,136,45,4*78
$GIGSV,2,2,07,06,38,260,39,07,29,099,44,01,00,000,43,4*46
$GNRMC,063911.000,A,0832.0956,N,07659.6709,E,000.0,000.0,260719,,,D*74
$GNVTG,000.0,T,,M,000.0,N,000.0,K,D*16
$GNZDA,063911.000,26,07,2019,00,00*4D
$GNGGA,063912.000,0832.0956,N,07659.6709,E,2,17,0.6,47.6,M,-88.1,M,,0000*51
$GNGLL,0832.0956,N,07659.6709,E,063912.000,A,D*4B
$GNGSA,A,3,02,06,17,19,28,24,15,05,12,13,25,,1.1,0.6,0.9,1*3F
$GNGSA,A,3,02,03,04,05,06,07,,,,,,,1.1,0.6,0.9,4*3A
$GNRMC,063912.000,A,0832.0956,N,07659.6709,E,000.0,000.0,260719,,,D*77
$GNVTG,000.0,T,,M,000.0,N,000.0,K,D*16
$GNZDA,063912.000,26,07,2019,00,00*4E
$GNGGA,063913.000,0832.0956,N,07659.6709,E,2,17,0.6,47.6,M,-88.1,M,,0000*50
$GNGLL,0832.0956,N,07659.6709,E,063913.000,A,D*4A
$GNGSA,A,3,02,06,17,19,28,24,15,05,12,13,25,,1.1,0.6,0.9,1*3F
$GNGSA,A,3,02,03,04,05,06,07,,,,,,,1.1,0.6,0.9,4*3A
$GNRMC,063913.000,A,0832.0956,N,07659.6709,E,000.0,000.0,260719,,,D*76
$GNVTG,000.0,T,,M,000.0,N,000.0,K,D*16
$GNZDA,063913.000,26,07,2019,00,00*4F
$GNGGA,063914.000,0832.0956,N,07659.6709,E,2,17,0.6,47.6,M,-88.1,M,,0000*57
$GNGLL,0832.0956,N,07659.6709,E,063914.000,A,D*4D
$GNGSA,A,3,02,06,17,19,28,24,15,05,12,13,25,,1.1,0.6,0.9,1*3F
$GNGSA,A,3,02,03,04,05,06,07,,,,,,,1.1,0.6,0.9,4*3A
$GPGSV,3,1,12,05,75,140,48,12,51,335,48,02,40,357,45,24,30,240,36,1*65
$GPGSV,3,2,12,19,18,070,32,13,15,165,34,25,12,326,36,17,12,083,42,1*6C
$GPGSV,3,3,12,06,12,033,38,15,10,199,33,28,05,142,33,41,00,000,49,1*6D
$GIGSV,2,1,07,03,76,151,48,02,64,254,44,05,52,060,49,04,40,136,45,4*78
$GIGSV,2,2,07,06,38,260,39,07,29,099,44,01,00,000,43,4*46
$GNRMC,063914.000,A,0832.0956,N,07659.6709,E,000.0,000.0,260719,,,D*71
$GNVTG,000.0,T,,M,000.0,N,000.0,K,D*16
$GNZDA,063914.000,26,07,2019,00,00*48
$GNGGA,063915.000,0832.0956,N,07659.6709,E,2,17,0.6,47.6,M,-88.1,M,,0000*56
$GNGLL,0832.0956,N,07659.6709,E,063915.000,A,D*4C
$GNGSA,A,3,02,06,17,19,28,24,15,05,12,13,25,,1.1,0.6,0.9,1*3F
$GNGSA,A,3,02,03,04,05,06,07,,,,,,,1.1,0.6,0.9,4*3A
$GNRMC,063915.000,A,0832.0956,N,07659.6709,E,000.0,000.0,260719,,,D*70
$GNVTG,000.0,T,,M,000.0,N,000.0,K,D*16
$GNZDA,063915.000,26,07,2019,00,00*49
$GNGGA,063916.000,0832.0956,N,07659.6709,E,2,17,0.6,47.6,M,-88.1,M,,0000*55
$GNGLL,0832.0956,N,07659.6709,E,063916.000,A,D*4F
$GNGSA,A,3,02,06,17,19,28,24,15,05,12,13,25,,1.1,0.6,0.9,1*3F
$GNGSA,A,3,02,03,04,05,06,07,,,,,,,1.1,0.6,0.9,4*3A
$GNRMC,063916.000,A,0832.0956,N,07659.6709,E,000.0,000.0,260719,,,D*73
$GNVTG,000.0,T,,M,000.0,N,000.0,K,D*16
$GNZDA,063916.000,26,07,2019,00,00*4A
$GNGGA,063917.000,0832.0956,N,07659.6709,E,2,17,0.6,47.6,M,-88.1,M,,0000*54
$GNGLL,0832.0956,N,07659.6709,E,063917.000,A,D*4E
$GNGSA,A,3,02,06,17,19,28,24,15,05,12,13,25,,1.1,0.6,0.9,1*3F
$GNGSA,A,3,02,03,04,05,06,07,,,,,,,1.1,0.6,0.9,4*3A
$GPGSV,3,1,12,05,75,140,47,12,51,335,48,02,40,357,45,24,30,240,36,1*6A
$GPGSV,3,2,12,19,18,070,32,13,15,165,34,25,12,326,37,17,12,083,42,1*6D
$GPGSV,3,3,12,06,12,033,38,15,10,199,34,28,05,142,33,41,00,000,49,1*6A
$GIGSV,2,1,07,03,76,151,48,02,64,254,44,05,52,060,49,04,40,136,45,4*78
$GIGSV,2,2,07,06,38,260,40,07,29,099,44,01,00,000,43,4*48
$GNRMC,063917.000,A,0832.0956,N,07659.6709,E,000.0,000.0,260719,,,D*72
$GNVTG,000.0,T,,M,000.0,N,000.0,K,D*16
$GNZDA,063917.000,26,07,2019,00,00*4B
$PIRNSF,4,2,8B,4A,37,08,70,20,F2,45,BA,F8,04,99,79,4F,2B,AA,4E,97,D3,5B,FB,92,09,35,9E,B7,FF,77,71,4B,B4,2E,A3,2F,82,E0,0*72
$PIRNSF,6,2,8B,4A,37,08,13,04,E0,89,BD,14,04,25,3A,DB,2B,AD,C4,03,54,F9,5D,B2,1C,B3,27,AB,FF,13,D0,1D,FF,0E,30,35,5D,D4,1*05
$PIRNSF,7,2,8B,4A,37,08,E7,F2,A3,4D,BD,14,01,2B,42,77,2B,AB,09,57,5B,CE,FB,A6,55,0E,92,2B,FE,CA,C0,1E,81,D3,F2,24,E4,04,0*71
$GNGGA,063918.000,0832.0956,N,07659.6709,E,2,17,0.6,47.6,M,-88.1,M,,0000*5B
$GNGLL,0832.0956,N,07659.6709,E,063918.000,A,D*41
$GNGSA,A,3,02,06,17,19,28,24,15,05,12,13,25,,1.1,0.6,0.9,1*3F
$GNGSA,A,3,02,03,04,05,06,07,,,,,,,1.1,0.6,0.9,4*3A
$GNRMC,063918.000,A,0832.0956,N,07659.6709,E,000.0,000.0,260719,,,D*7D
$GNVTG,000.0,T,,M,000.0,N,000.0,K,D*16
$GNZDA,063918.000,26,07,2019,00,00*44
$PIRNSF,3,2,8B,4A,37,0A,EB,A5,52,0D,BA,F8,03,FA,B9,17,2B,AB,DF,3E,F5,DC,83,C0,19,4C,B7,4B,FD,2A,D0,15,B4,76,D0,16,15,90,0*0C
$PIRNSF,2,2,8B,4A,37,0B,E0,FD,81,A9,BD,14,04,78,4A,0F,2B,AB,93,5F,D3,12,AA,7A,10,EB,18,57,FF,74,A1,4C,BF,EE,F2,AC,15,10,0*0E
$PIRNSF,5,2,8B,4A,37,0A,93,75,1E,15,BD,14,03,E0,8E,27,2B,AF,6C,C5,D0,66,CA,0A,02,5F,8E,37,FF,6F,61,4E,40,72,91,9D,F8,4C,0*04
$PIRNSF,1,4,8B,4A,37,79,45,55,55,55,55,55,55,55,55,55,55,55,55,55,55,55,55,55,55,55,55,55,55,55,55,55,55,55,06,B9,F0,5C,0*70
$GNGGA,063919.000,0832.0956,N,07659.6709,E,2,17,0.6,47.6,M,-88.1,M,,0000*5A
$GNGLL,0832.0956,N,07659.6709,E,063919.000,A,D*40
$GNGSA,A,3,02,06,17,19,28,24,15,05,12,13,25,,1.1,0.6,0.9,1*3F
$GNGSA,A,3,02,03,04,05,06,07,,,,,,,1.1,0.6,0.9,4*3A
$GNRMC,063919.000,A,0832.0956,N,07659.6709,E,000.0,000.0,260719,,,D*7C
$GNVTG,000.0,T,,M,000.0,N,000.0,K,D*16
$GNZDA,063919.000,26,07,2019,00,00*45
$GNGGA,063920.000,0832.0956,N,07659.6709,E,2,17,0.6,47.6,M,-88.1,M,,0000*50
$GNGLL,0832.0956,N,07659.6709,E,063920.000,A,D*4A
$GNGSA,A,3,02,06,17,19,28,24,15,05,12,13,25,,1.1,0.6,0.9,1*3F
$GNGSA,A,3,02,03,04,05,06,07,,,,,,,1.1,0.6,0.9,4*3A
$GPGSV,3,1,12,05,75,140,47,12,51,335,47,02,40,357,43,24,30,240,36,1*63
$GPGSV,3,2,12,19,18,070,30,13,15,165,33,25,12,326,36,17,12,083,41,1*6A
$GPGSV,3,3,12,06,12,033,37,15,10,199,32,28,05,142,34,41,00,000,49,1*64
$GIGSV,2,1,07,03,76,151,48,02,64,254,45,05,52,060,50,04,40,136,45,4*71
$GIGSV,2,2,07,06,38,260,40,07,29,099,44,01,00,000,44,4*4F
$GNRMC,063920.000,A,0832.0956,N,07659.6709,E,000.0,000.0,260719,,,D*76
$GNVTG,000.0,T,,M,000.0,N,000.0,K,D*16
$GNZDA,063920.000,26,07,2019,00,00*4F
$GNGGA,063921.000,0832.0956,N,07659.6709,E,2,17,0.6,47.6,M,-88.1,M,,0000*51
$GNGLL,0832.0956,N,07659.6709,E,063921.000,A,D*4B
$GNGSA,A,3,02,06,17,19,28,24,15,05,12,13,25,,1.1,0.6,0.9,1*3F
$GNGSA,A,3,02,03,04,05,06,07,,,,,,,1.1,0.6,0.9,4*3A
$GNRMC,063921.000,A,0832.0956,N,07659.6709,E,000.0,000.0,260719,,,D*77
$GNVTG,000.0,T,,M,000.0,N,000.0,K,D*16
$GNZDA,063921.000,26,07,2019,00,00*4E
$GNGGA,063922.000,0832.0956,N,07659.6709,E,2,17,0.6,47.6,M,-88.1,M,,0000*52
$GNGLL,0832.0956,N,07659.6709,E,063922.000,A,D*48
$GNGSA,A,3,02,06,17,19,28,24,15,05,12,13,25,,1.1,0.6,0.9,1*3F
$GNGSA,A,3,02,03,04,05,06,07,,,,,,,1.1,0.6,0.9,4*3A
$GNRMC,063922.000,A,0832.0956,N,07659.6709,E,000.0,000.0,260719,,,D*74
$GNVTG,000.0,T,,M,000.0,N,000.0,K,D*16
$GNZDA,063922.000,26,07,2019,00,00*4D
$GNGGA,063923.000,0832.0956,N,07659.6709,E,2,17,0.6,47.6,M,-88.1,M,,0000*53
$GNGLL,0832.0956,N,07659.6709,E,063923.000,A,D*49
$GNGSA,A,3,02,06,17,19,28,24,15,05,12,13,25,,1.1,0.6,0.9,1*3F
$GNGSA,A,3,02,03,04,05,06,07,,,,,,,1.1,0.6,0.9,4*3A
$GPGSV,3,1,12,05,75,139,47,12,51,335,47,02,40,358,43,24,30,240,36,1*62
$GPGSV,3,2,12,19,18,070,31,13,15,165,33,25,12,326,37,17,12,083,41,1*6A
$GPGSV,3,3,12,06,12,033,37,15,10,199,31,28,05,142,35,41,00,000,49,1*66
$GIGSV,2,1,07,03,76,151,49,02,64,254,45,05,52,060,50,04,40,136,46,4*73
$GIGSV,2,2,07,06,38,260,40,07,29,099,45,01,00,000,44,4*4E
$GNRMC,063923.000,A,0832.0956,N,07659.6709,E,000.0,000.0,260719,,,D*75
$GNVTG,000.0,T,,M,000.0,N,000.0,K,D*16
$GNZDA,063923.000,26,07,2019,00,00*4C
$GNGGA,063924.000,0832.0956,N,07659.6709,E,2,17,0.6,47.6,M,-88.1,M,,0000*54
$GNGLL,0832.0956,N,07659.6709,E,063924.000,A,D*4E
$GNGSA,A,3,02,06,17,19,28,24,15,05,12,13,25,,1.1,0.6,0.9,1*3F
$GNGSA,A,3,02,03,04,05,06,07,,,,,,,1.1,0.6,0.9,4*3A
$GNRMC,063924.000,A,0832.0956,N,07659.6709,E,000.0,000.0,260719,,,D*72
$GNVTG,000.0,T,,M,000.0,N,000.0,K,D*16
$GNZDA,063924.000,26,07,2019,00,00*4B
$GNGGA,063925.000,0832.0956,N,07659.6709,E,2,17,0.6,47.6,M,-88.1,M,,0000*55
$GNGLL,0832.0956,N,07659.6709,E,063925.000,A,D*4F
$GNGSA,A,3,02,06,17,19,28,24,15,05,12,13,25,,1.1,0.6,0.9,1*3F
$GNGSA,A,3,02,03,04,05,06,07,,,,,,,1.1,0.6,0.9,4*3A
$GNRMC,063925.000,A,0832.0956,N,07659.6709,E,000.0,000.0,260719,,,D*73
$GNVTG,000.0,T,,M,000.0,N,000.0,K,D*16
$GNZDA,063925.000,26,07,2019,00,00*4A
$GNGGA,063926.000,0832.0956,N,07659.6709,E,2,17,0.6,47.6,M,-88.1,M,,0000*56
$GNGLL,0832.0956,N,07659.6709,E,063926.000,A,D*4C
$GNGSA,A,3,02,06,17,19,28,24,15,05,12,13,25,,1.1,0.6,0.9,1*3F
$GNGSA,A,3,02,03,04,05,06,07,,,,,,,1.1,0.6,0.9,4*3A
$GPGSV,3,1,12,05,75,139,47,12,51,335,47,02,40,358,43,24,30,240,35,1*61
$GPGSV,3,2,12,19,18,070,30,13,15,165,33,25,12,326,36,17,12,083,41,1*6A
$GPGSV,3,3,12,06,11,033,37,15,10,199,30,28,05,142,35,41,00,000,49,1*64
$GIGSV,2,1,07,03,76,151,49,02,64,254,45,05,52,060,50,04,40,136,46,4*73
$GIGSV,2,2,07,06,38,260,40,07,29,099,45,01,00,000,44,4*4E
$GNRMC,063926.000,A,0832.0956,N,07659.6709,E,000.0,000.0,260719,,,D*70
$GNVTG,000.0,T,,M,000.0,N,000.0,K,D*16
$GNZDA,063926.000,26,07,2019,00,00*49
$GNGGA,063927.000,0832.0956,N,07659.6709,E,2,17,0.6,47.6,M,-88.1,M,,0000*57
$GNGLL,0832.0956,N,07659.6709,E,063927.000,A,D*4D
$GNGSA,A,3,02,06,17,19,28,24,15,05,12,13,25,,1.1,0.6,0.9,1*3F
$GNGSA,A,3,02,03,04,05,06,07,,,,,,,1.1,0.6,0.9,4*3A
$GNRMC,063927.000,A,0832.0956,N,07659.6709,E,000.0,000.0,260719,,,D*71
$GNVTG,000.0,T,,M,000.0,N,000.0,K,D*16
$GNZDA,063927.000,26,07,2019,00,00*48
$GNGGA,063928.000,0832.0956,N,07659.6709,E,2,17,0.6,47.6,M,-88.1,M,,0000*58
$GNGLL,0832.0956,N,07659.6709,E,063928.000,A,D*42
$GNGSA,A,3,02,06,17,19,28,24,15,05,12,13,25,,1.1,0.6,0.9,1*3F
$GNGSA,A,3,02,03,04,05,06,07,,,,,,,1.1,0.6,0.9,4*3A
$GNRMC,063928.000,A,0832.0956,N,07659.6709,E,000.0,000.0,260719,,,D*7E
$GNVTG,000.0,T,,M,000.0,N,000.0,K,D*16
$GNZDA,063928.000,26,07,2019,00,00*47
$GNGGA,063929.000,0832.0956,N,07659.6709,E,2,17,0.6,47.6,M,-88.1,M,,0000*59
$GNGLL,0832.0956,N,07659.6709,E,063929.000,A,D*43
$GNGSA,A,3,02,06,17,19,28,24,15,05,12,13,25,,1.1,0.6,0.9,1*3F
$GNGSA,A,3,02,03,04,05,06,07,,,,,,,1.1,0.6,0.9,4*3A
$GPGSV,3,1,12,05,75,139,47,12,51,335,47,02,40,358,44,24,30,240,36,1*65
$GPGSV,3,2,12,19,18,070,31,13,15,165,32,25,12,326,36,17,12,083,41,1*6A
$GPGSV,3,3,12,06,11,033,37,15,10,199,31,28,05,142,34,41,00,000,49,1*64
$GIGSV,2,1,07,03,76,151,48,02,64,254,45,05,52,060,50,04,40,136,46,4*72
$GIGSV,2,2,07,06,38,260,40,07,29,099,45,01,00,000,44,4*4E
$GNRMC,063929.000,A,0832.0956,N,07659.6709,E,000.0,000.0,260719,,,D*7F
$GNVTG,000.0,T,,M,000.0,N,000.0,K,D*16
$GNZDA,063929.000,26,07,2019,00,00*46
$PIRNSF,3,3,8B,4A,37,90,70,3C,40,61,A5,E0,05,67,97,FE,57,2B,AB,E2,E6,AA,B8,1B,62,E9,F8,20,0F,78,7E,A0,C0,00,0C,1D,22,CC,0*05
$PIRNSF,2,3,8B,4A,37,90,50,19,34,4B,82,9B,17,50,CA,C6,B8,38,D1,9E,8D,B4,6D,A3,ED,17,60,C3,06,B8,38,C1,D8,00,0A,7C,88,8C,1*73
$PIRNSF,5,3,8B,4A,37,90,50,18,74,39,A2,2D,0D,E8,BB,87,3A,57,D2,96,91,F0,73,82,FD,15,E8,C3,46,7A,3D,D2,40,00,16,E3,DE,A4,1*09
$PIRNSF,4,3,8B,4A,37,90,75,55,55,55,55,55,55,55,55,55,55,55,55,55,55,55,55,55,55,55,55,55,55,55,55,55,55,55,12,17,CB,B8,0*75
$GNGGA,063930.000,0832.0956,N,07659.6709,E,2,17,0.6,47.6,M,-88.1,M,,0000*51
$GNGLL,0832.0956,N,07659.6709,E,063930.000,A,D*4B
$GNGSA,A,3,02,06,17,19,28,24,15,05,12,13,25,,1.1,0.6,0.9,1*3F
$GNGSA,A,3,02,03,04,05,06,07,,,,,,,1.1,0.6,0.9,4*3A
$GNRMC,063930.000,A,0832.0956,N,07659.6709,E,000.0,000.0,260719,,,D*77
$GNVTG,000.0,T,,M,000.0,N,000.0,K,D*16
$GNZDA,063930.000,26,07,2019,00,00*4E
$PIRNSF,6,3,8B,4A,37,90,50,18,B4,8B,A4,1C,1D,58,D2,C6,78,39,D1,E6,90,34,8B,A5,1D,1C,60,C2,C5,74,2E,B1,90,00,19,A2,AE,60,0*05
$PIRNSF,7,3,8B,4A,37,90,50,18,74,39,A2,2D,0D,E8,BB,87,3A,57,D2,96,91,F0,73,82,FD,15,E8,C3,46,7A,3D,D2,40,00,1C,C8,8A,90,0*76
$PIRNSF,1,4,8B,4A,37,F9,45,55,55,55,55,55,55,55,55,55,55,55,55,55,55,55,55,55,55,55,55,55,55,55,55,55,55,55,04,F3,F0,5C,0*0D
$GNGGA,063931.000,0832.0956,N,07659.6709,E,2,17,0.6,47.6,M,-88.1,M,,0000*50
$GNGLL,0832.0956,N,07659.6709,E,063931.000,A,D*4A
$GNGSA,A,3,02,06,17,19,28,24,15,05,12,13,25,,1.1,0.6,0.9,1*3F
$GNGSA,A,3,02,03,04,05,06,07,,,,,,,1.1,0.6,0.9,4*3A
$GNRMC,063931.000,A,0832.0956,N,07659.6709,E,000.0,000.0,260719,,,D*76
$GNVTG,000.0,T,,M,000.0,N,000.0,K,D*16
$GNZDA,063931.000,26,07,2019,00,00*4F
$GNGGA,063932.000,0832.0956,N,07659.6709,E,2,17,0.6,47.6,M,-88.1,M,,0000*53
$GNGLL,0832.0956,N,07659.6709,E,063932.000,A,D*49
$GNGSA,A,3,02,06,17,19,28,24,15,05,12,13,25,,1.1,0.6,0.9,1*3F
$GNGSA,A,3,02,03,04,05,06,07,,,,,,,1.1,0.6,0.9,4*3A
$GPGSV,3,1,12,05,75,139,47,12,51,335,47,02,40,358,44,24,30,240,36,1*65
$GPGSV,3,2,12,19,18,070,31,13,15,165,32,25,12,326,37,17,12,083,42,1*68
$GPGSV,3,3,12,06,11,033,36,15,10,199,29,28,05,142,34,41,00,000,48,1*6D
$GIGSV,2,1,07,03,76,151,48,02,64,254,45,05,52,060,50,04,40,136,45,4*71
$GIGSV,2,2,07,06,38,260,39,07,29,099,45,01,00,000,44,4*40
$GNRMC,063932.000,A,0832.0956,N,07659.6709,E,000.0,000.0,260719,,,D*75
$GNVTG,000.0,T,,M,000.0,N,000.0,K,D*16
$GNZDA,063932.000,26,07,2019,00,00*4C
$GNGGA,063933.000,0832.0956,N,07659.6709,E,2,17,0.6,47.6,M,-88.1,M,,0000*52
$GNGLL,0832.0956,N,07659.6709,E,063933.000,A,D*48
$GNGSA,A,3,02,06,17,19,28,24,15,05,12,13,25,,1.1,0.6,0.9,1*3F
$GNGSA,A,3,02,03,04,05,06,07,,,,,,,1.1,0.6,0.9,4*3A
$GNRMC,063933.000,A,0832.0956,N,07659.6709,E,000.0,000.0,260719,,,D*74
$GNVTG,000.0,T,,M,000.0,N,000.0,K,D*16
$GNZDA,063933.000,26,07,2019,00,00*4D
$GNGGA,063934.000,0832.0956,N,07659.6709,E,2,17,0.6,47.6,M,-88.1,M,,0000*55
$GNGLL,0832.0956,N,07659.6709,E,063934.000,A,D*4F
$GNGSA,A,3,02,06,17,19,28,24,15,05,12,13,25,,1.1,0.6,0.9,1*3F
$GNGSA,A,3,02,03,04,05,06,07,,,,,,,1.1,0.6,0.9,4*3A
$GNRMC,063934.000,A,0832.0956,N,07659.6709,E,000.0,000.0,260719,,,D*73
$GNVTG,000.0,T,,M,000.0,N,000.0,K,D*16
$GNZDA,063934.000,26,07,2019,00,00*4A
$GNGGA,063935.000,0832.0956,N,07659.6709,E,2,17,0.6,47.6,M,-88.1,M,,0000*54
$GNGLL,0832.0956,N,07659.6709,E,063935.000,A,D*4E
$GNGSA,A,3,02,06,17,19,28,24,15,05,12,13,25,,1.1,0.6,0.9,1*3F
$GNGSA,A,3,02,03,04,05,06,07,,,,,,,1.1,0.6,0.9,4*3A
$GPGSV,3,1,12,05,75,139,47,12,51,335,47,02,40,358,44,24,30,240,35,1*66
$GPGSV,3,2,12,19,18,070,30,13,15,165,31,25,12,326,36,17,12,083,41,1*68
$GPGSV,3,3,12,06,11,033,36,15,10,199,30,28,05,142,32,41,00,000,48,1*63
$GIGSV,2,1,07,03,76,151,49,02,64,254,45,05,52,060,50,04,40,136,46,4*73
$GIGSV,2,2,07,06,38,260,40,07,29,099,46,01,00,000,44,4*4D
$GNRMC,063935.000,A,0832.0956,N,07659.6709,E,000.0,000.0,260719,,,D*72
$GNVTG,000.0,T,,M,000.0,N,000.0,K,D*16
$GNZDA,063935.000,26,07,2019,00,00*4B
$GNGGA,063936.000,0832.0956,N,07659.6709,E,2,17,0.6,47.6,M,-88.1,M,,0000*57
$GNGLL,0832.0956,N,07659.6709,E,063936.000,A,D*4D
$GNGSA,A,3,02,06,17,19,28,24,15,05,12,13,25,,1.1,0.6,0.9,1*3F
$GNGSA,A,3,02,03,04,05,06,07,,,,,,,1.1,0.6,0.9,4*3A
$GNRMC,063936.000,A,0832.0956,N,07659.6709,E,000.0,000.0,260719,,,D*71
$GNVTG,000.0,T,,M,000.0,N,000.0,K,D*16
$GNZDA,063936.000,26,07,2019,00,00*48
$GNGGA,063937.000,0832.0956,N,07659.6709,E,2,17,0.6,47.6,M,-88.1,M,,0000*56
$GNGLL,0832.0956,N,07659.6709,E,063937.000,A,D*4C
$GNGSA,A,3,02,06,17,19,28,24,15,05,12,13,25,,1.1,0.6,0.9,1*3F
$GNGSA,A,3,02,03,04,05,06,07,,,,,,,1.1,0.6,0.9,4*3A
$GNRMC,063937.000,A,0832.0956,N,07659.6709,E,000.0,000.0,260719,,,D*70
$GNVTG,000.0,T,,M,000.0,N,000.0,K,D*16
$GNZDA,063937.000,26,07,2019,00,00*49
$GNGGA,063938.000,0832.0956,N,07659.6709,E,2,17,0.6,47.6,M,-88.1,M,,0000*59
$GNGLL,0832.0956,N,07659.6709,E,063938.000,A,D*43
$GNGSA,A,3,02,06,17,19,28,24,15,05,12,13,25,,1.1,0.6,0.9,1*3F
$GNGSA,A,3,02,03,04,05,06,07,,,,,,,1.1,0.6,0.9,4*3A
$GPGSV,3,1,12,05,75,139,47,12,51,335,46,02,40,358,44,24,30,240,35,1*67
$GPGSV,3,2,12,19,18,070,29,13,15,165,30,25,12,326,36,17,12,083,41,1*61
$GPGSV,3,3,12,06,11,033,36,15,10,199,30,28,05,142,32,41,00,000,48,1*63
$GIGSV,2,1,07,03,76,151,49,02,64,254,45,05,52,060,50,04,40,136,46,4*73
$GIGSV,2,2,07,06,38,260,41,07,29,099,46,01,00,000,44,4*4C
$GNRMC,063938.000,A,0832.0956,N,07659.6709,E,000.0,000.0,260719,,,D*7F
$GNVTG,000.0,T,,M,000.0,N,000.0,K,D*16
$GNZDA,063938.000,26,07,2019,00,00*46
$GNGGA,063939.000,0832.0956,N,07659.6709,E,2,17,0.6,47.6,M,-88.1,M,,0000*58
$GNGLL,0832.0956,N,07659.6709,E,063939.000,A,D*42
$GNGSA,A,3,02,06,17,19,28,24,15,05,12,13,25,,1.1,0.6,0.9,1*3F
$GNGSA,A,3,02,03,04,05,06,07,,,,,,,1.1,0.6,0.9,4*3A
$GNRMC,063939.000,A,0832.0956,N,07659.6709,E,000.0,000.0,260719,,,D*7E
$GNVTG,000.0,T,,M,000.0,N,000.0,K,D*16
$GNZDA,063939.000,26,07,2019,00,00*47
$GNGGA,063940.000,0832.0956,N,07659.6709,E,2,17,0.6,47.6,M,-88.1,M,,0000*56
$GNGLL,0832.0956,N,07659.6709,E,063940.000,A,D*4C
$GNGSA,A,3,02,06,17,19,28,24,15,05,12,13,25,,1.1,0.6,0.9,1*3F
$GNGSA,A,3,02,03,04,05,06,07,,,,,,,1.1,0.6,0.9,4*3A
$GNRMC,063940.000,A,0832.0956,N,07659.6709,E,000.0,000.0,260719,,,D*70
$GNVTG,000.0,T,,M,000.0,N,000.0,K,D*16
$GNZDA,063940.000,26,07,2019,00,00*49
$GNGGA,063941.000,0832.0956,N,07659.6709,E,2,17,0.6,47.6,M,-88.1,M,,0000*57
$GNGLL,0832.0956,N,07659.6709,E,063941.000,A,D*4D
$GNGSA,A,3,02,06,17,19,28,24,15,05,12,13,25,,1.1,0.6,0.9,1*3F
$GNGSA,A,3,02,03,04,05,06,07,,,,,,,1.1,0.6,0.9,4*3A
$GPGSV,3,1,12,05,75,139,46,12,51,335,47,02,40,358,44,24,30,240,35,1*67
$GPGSV,3,2,12,19,18,070,31,13,15,165,31,25,12,326,36,17,12,083,41,1*69
$GPGSV,3,3,12,06,11,033,35,15,10,199,30,28,05,142,32,41,00,000,48,1*60
$GIGSV,2,1,07,03,76,151,49,02,64,254,45,05,52,060,50,04,39,136,46,4*7D
$GIGSV,2,2,07,06,38,260,41,07,29,099,46,01,00,000,44,4*4C
$GNRMC,063941.000,A,0832.0956,N,07659.6709,E,000.0,000.0,260719,,,D*71
$GNVTG,000.0,T,,M,000.0,N,000.0,K,D*16
$GNZDA,063941.000,26,07,2019,00,00*48
$PIRNSF,7,4,8B,4A,38,18,50,18,B4,8B,A4,1C,1D,D8,D2,C6,78,39,D1,E6,90,34,8B,A5,1D,1C,E0,C2,C5,74,2E,B1,90,00,1F,2F,09,A8,0*04
$PIRNSF,3,4,8B,4A,38,18,50,18,34,61,A3,0D,19,68,CF,43,DA,10,D0,86,82,F4,07,C1,9E,35,E9,6B,48,DA,34,D1,28,00,0E,47,05,DC,0*0C
$PIRNSF,2,4,8B,4A,38,18,50,19,70,81,A3,1D,15,68,B3,46,5A,31,D1,B6,8E,74,81,A4,1D,23,68,FF,45,7A,25,D1,18,00,0B,8F,EA,10,0*70
$PIRNSF,5,4,8B,4A,38,18,50,18,B4,8B,A4,1C,1D,D8,D2,C6,78,39,D1,E6,90,34,8B,A5,1D,1C,E0,C2,C5,74,2E,B1,90,00,15,04,5D,9C,1*7F
$PIRNSF,4,4,8B,4A,38,18,70,3C,47,45,A5,E0,53,30,48,00,47,2B,AB,07,D3,0F,86,11,6F,7A,C6,1B,6F,D9,FF,60,80,00,11,DD,3D,DC,0*77
$GNGGA,063942.000,0832.0956,N,07659.6709,E,2,17,0.6,47.6,M,-88.1,M,,0000*54
$GNGLL,0832.0956,N,07659.6709,E,063942.000,A,D*4E
$GNGSA,A,3,02,06,17,19,28,24,15,05,12,13,25,,1.1,0.6,0.9,1*3F
$GNGSA,A,3,02,03,04,05,06,07,,,,,,,1.1,0.6,0.9,4*3A
$GNRMC,063942.000,A,0832.0956,N,07659.6709,E,000.0,000.0,260719,,,D*72
$GNVTG,000.0,T,,M,000.0,N,000.0,K,D*16
$GNZDA,063942.000,26,07,2019,00,00*4B
$PIRNSF,1,4,8B,4A,38,79,45,55,55,55,55,55,55,55,55,55,55,55,55,55,55,55,55,55,55,55,55,55,55,55,55,55,55,55,07,17,F0,5C,0*03
$PIRNSF,6,4,8B,4A,38,18,50,18,F0,7B,84,2D,22,69,23,49,BA,25,C1,3D,0A,64,59,43,0C,1B,60,EB,47,DA,43,D2,40,00,19,35,CC,14,0*75
$GNGGA,063943.000,0832.0956,N,07659.6709,E,2,17,0.6,47.6,M,-88.1,M,,0000*55
$GNGLL,0832.0956,N,07659.6709,E,063943.000,A,D*4F
$GNGSA,A,3,02,06,17,19,28,24,15,05,12,13,25,,1.1,0.6,0.9,1*3F
$GNGSA,A,3,02,03,04,05,06,07,,,,,,,1.1,0.6,0.9,4*3A
$GNRMC,063943.000,A,0832.0956,N,07659.6709,E,000.0,000.0,260719,,,D*73
$GNVTG,000.0,T,,M,000.0,N,000.0,K,D*16
$GNZDA,063943.000,26,07,2019,00,00*4A
$GNGGA,063944.000,0832.0956,N,07659.6709,E,2,17,0.6,47.6,M,-88.1,M,,0000*52
$GNGLL,0832.0956,N,07659.6709,E,063944.000,A,D*48
$GNGSA,A,3,02,06,17,19,28,24,15,05,12,13,25,,1.1,0.6,0.9,1*3F
$GNGSA,A,3,02,03,04,05,06,07,,,,,,,1.1,0.6,0.9,4*3A
$GPGSV,3,1,12,05,75,139,46,12,51,335,47,02,40,358,44,24,30,239,35,1*69
$GPGSV,3,2,12,19,18,070,31,13,15,165,30,25,12,326,36,17,12,083,41,1*68
$GPGSV,3,3,12,06,11,033,35,15,10,199,30,28,05,142,31,41,00,000,48,1*63
$GIGSV,2,1,07,03,76,151,48,02,64,254,45,05,52,060,50,04,39,136,45,4*7F
$GIGSV,2,2,07,06,38,260,40,07,29,099,45,01,00,000,44,4*4E
$GNRMC,063944.000,A,0832.0956,N,07659.6709,E,000.0,000.0,260719,,,D*74
$GNVTG,000.0,T,,M,000.0,N,000.0,K,D*16
$GNZDA,063944.000,26,07,2019,00,00*4D
$GNGGA,063945.000,0832.0956,N,07659.6709,E,2,17,0.6,47.6,M,-88.1,M,,0000*53
$GNGLL,0832.0956,N,07659.6709,E,063945.000,A,D*49
$GNGSA,A,3,02,06,17,19,28,24,15,05,12,13,25,,1.1,0.6,0.9,1*3F
$GNGSA,A,3,02,03,04,05,06,07,,,,,,,1.1,0.6,0.9,4*3A
$GNRMC,063945.000,A,0832.0956,N,07659.6709,E,000.0,000.0,260719,,,D*75
$GNVTG,000.0,T,,M,000.0,N,000.0,K,D*16
$GNZDA,063945.000,26,07,2019,00,00*4C
$GNGGA,063946.000,0832.0956,N,07659.6709,E,2,17,0.6,47.6,M,-88.1,M,,0000*50
$GNGLL,0832.0956,N,07659.6709,E,063946.000,A,D*4A
$GNGSA,A,3,02,06,17,19,28,24,15,05,12,13,25,,1.1,0.6,0.9,1*3F
$GNGSA,A,3,02,03,04,05,06,07,,,,,,,1.1,0.6,0.9,4*3A
$GNRMC,063946.000,A,0832.0956,N,07659.6709,E,000.0,000.0,260719,,,D*76
$GNVTG,000.0,T,,M,000.0,N,000.0,K,D*16
$GNZDA,063946.000,26,07,2019,00,00*4F
$GNGGA,063947.000,0832.0956,N,07659.6709,E,2,17,0.6,47.6,M,-88.1,M,,0000*51
$GNGLL,0832.0956,N,07659.6709,E,063947.000,A,D*4B
$GNGSA,A,3,02,06,17,19,28,24,15,05,12,13,25,,1.1,0.6,0.9,1*3F
$GNGSA,A,3,02,03,04,05,06,07,,,,,,,1.1,0.6,0.9,4*3A
$GPGSV,3,1,12,05,75,139,47,12,51,335,47,02,40,358,44,24,30,239,35,1*68
$GPGSV,3,2,12,19,18,070,31,13,15,165,31,25,12,326,36,17,12,083,41,1*69
$GPGSV,3,3,12,06,11,033,36,15,10,199,30,28,05,142,32,41,00,000,49,1*62
$GIGSV,2,1,07,03,76,151,48,02,64,254,44,05,52,060,50,04,39,136,45,4*7E
$GIGSV,2,2,07,06,38,260,40,07,29,099,45,01,00,000,43,4*49
$GNRMC,063947.000,A,0832.0956,N,07659.6709,E,000.0,000.0,260719,,,D*77
$GNVTG,000.0,T,,M,000.0,N,000.0,K,D*16
$GNZDA,063947.000,26,07,2019,00,00*4E
$GNGGA,063948.000,0832.0956,N,07659.6709,E,2,17,0.6,47.6,M,-88.1,M,,0000*5E
$GNGLL,0832.0956,N,07659.6709,E,063948.000,A,D*44
$GNGSA,A,3,02,06,17,19,28,24,15,05,12,13,25,,1.1,0.6,0.9,1*3F
$GNGSA,A,3,02,03,04,05,06,07,,,,,,,1.1,0.6,0.9,4*3A
$GNRMC,063948.000,A,0832.0956,N,07659.6709,E,000.0,000.0,260719,,,D*78
$GNVTG,000.0,T,,M,000.0,N,000.0,K,D*16
$GNZDA,063948.000,26,07,2019,00,00*41
$GNGGA,063949.000,0832.0956,N,07659.6709,E,2,17,0.6,47.6,M,-88.1,M,,0000*5F
$GNGLL,0832.0956,N,07659.6709,E,063949.000,A,D*45
$GNGSA,A,3,02,06,17,19,28,24,15,05,12,13,25,,1.1,0.6,0.9,1*3F
$GNGSA,A,3,02,03,04,05,06,07,,,,,,,1.1,0.6,0.9,4*3A
$GNRMC,063949.000,A,0832.0956,N,07659.6709,E,000.0,000.0,260719,,,D*79
$GNVTG,000.0,T,,M,000.0,N,000.0,K,D*16
$GNZDA,063949.000,26,07,2019,00,00*40
$GNGGA,063950.000,0832.0956,N,07659.6709,E,2,17,0.6,47.6,M,-88.1,M,,0000*57
$GNGLL,0832.0956,N,07659.6709,E,063950.000,A,D*4D
$GNGSA,A,3,02,06,17,19,28,24,15,05,12,13,25,,1.1,0.6,0.9,1*3F
$GNGSA,A,3,02,03,04,05,06,07,,,,,,,1.1,0.6,0.9,4*3A
$GPGSV,3,1,12,05,75,139,47,12,51,335,48,02,40,358,45,24,30,239,35,1*66
$GPGSV,3,2,12,19,18,070,32,13,15,165,31,25,12,326,37,17,12,083,41,1*6B
$GPGSV,3,3,12,06,11,033,36,15,10,199,31,28,05,142,33,41,00,000,49,1*62
$GIGSV,2,1,07,03,76,151,48,02,64,254,45,05,52,060,50,04,39,136,45,4*7F
$GIGSV,2,2,07,06,38,260,40,07,29,099,44,01,00,000,43,4*48
$GNRMC,063950.000,A,0832.0956,N,07659.6709,E,000.0,000.0,260719,,,D*71
$GNVTG,000.0,T,,M,000.0,N,000.0,K,D*16
$GNZDA,063950.000,26,07,2019,00,00*48
$GNGGA,063951.000,0832.0956,N,07659.6709,E,2,17,0.6,47.6,M,-88.1,M,,0000*56
$GNGLL,0832.0956,N,07659.6709,E,063951.000,A,D*4C
$GNGSA,A,3,02,06,17,19,28,24,15,05,12,13,25,,1.1,0.6,0.9,1*3F
$GNGSA,A,3,02,03,04,05,06,07,,,,,,,1.1,0.6,0.9,4*3A
$GNRMC,063951.000,A,0832.0956,N,07659.6709,E,000.0,000.0,260719,,,D*70
$GNVTG,000.0,T,,M,000.0,N,000.0,K,D*16
$GNZDA,063951.000,26,07,2019,00,00*49
$GNGGA,063952.000,0832.0956,N,07659.6709,E,2,17,0.6,47.6,M,-88.1,M,,0000*55
$GNGLL,0832.0956,N,07659.6709,E,063952.000,A,D*4F
$GNGSA,A,3,02,06,17,19,28,24,15,05,12,13,25,,1.1,0.6,0.9,1*3F
$GNGSA,A,3,02,03,04,05,06,07,,,,,,,1.1,0.6,0.9,4*3A
$GNRMC,063952.000,A,0832.0956,N,07659.6709,E,000.0,000.0,260719,,,D*73
$GNVTG,000.0,T,,M,000.0,N,000.0,K,D*16
$GNZDA,063952.000,26,07,2019,00,00*4A
$GNGGA,063953.000,0832.0956,N,07659.6709,E,2,17,0.6,47.6,M,-88.1,M,,0000*54
$GNGLL,0832.0956,N,07659.6709,E,063953.000,A,D*4E
$GNGSA,A,3,02,06,17,19,28,24,15,05,12,13,25,,1.1,0.6,0.9,1*3F
$GNGSA,A,3,02,03,04,05,06,07,,,,,,,1.1,0.6,0.9,4*3A
$GPGSV,3,1,12,05,75,139,48,12,51,335,48,02,40,358,45,24,30,239,36,1*6A
$GPGSV,3,2,12,19,18,070,34,13,15,165,32,25,12,326,37,17,12,083,42,1*6D
$GPGSV,3,3,12,06,11,033,35,15,10,199,30,28,05,142,34,41,00,000,49,1*67
$GIGSV,2,1,07,03,76,151,48,02,64,254,45,05,52,060,50,04,39,136,45,4*7F
$GIGSV,2,2,07,06,38,260,40,07,29,099,45,01,00,000,44,4*4E
$GNRMC,063953.000,A,0832.0956,N,07659.6709,E,000.0,000.0,260719,,,D*72
$GNVTG,000.0,T,,M,000.0,N,000.0,K,D*16
$GNZDA,063953.000,26,07,2019,00,00*4B
$PIRNSF,6,1,8B,4A,38,80,0F,2A,6E,AC,07,D4,00,1B,D1,7F,00,11,50,BB,F8,C0,D7,83,A0,80,01,FF,FD,CB,4C,32,5F,A5,C2,40,25,30,0*78
$PIRNSF,7,1,8B,4A,38,80,0F,16,14,E4,14,FC,00,1B,D1,7F,40,16,62,BB,F8,C0,A4,E2,6E,7F,FC,00,12,DD,9A,24,D7,C6,F0,BD,99,14,0*75
$PIRNSF,3,1,8B,4A,38,80,0F,DD,06,C3,F4,A4,00,5B,AF,BF,40,30,09,03,F8,CE,CA,C2,8B,00,14,80,24,DA,89,BB,FF,CE,02,91,E4,68,0*71
$GNGGA,063954.000,0832.0956,N,07659.6709,E,2,17,0.6,47.6,M,-88.1,M,,0000*53
$GNGLL,0832.0956,N,07659.6709,E,063954.000,A,D*49
$GNGSA,A,3,02,06,17,19,28,24,15,05,12,13,25,,1.1,0.6,0.9,1*3F
$GNGSA,A,3,02,03,04,05,06,07,,,,,,,1.1,0.6,0.9,4*3A
$GNRMC,063954.000,A,0832.0956,N,07659.6709,E,000.0,000.0,260719,,,D*75
$GNVTG,000.0,T,,M,000.0,N,000.0,K,D*16
$GNZDA,063954.000,26,07,2019,00,00*4C
$PIRNSF,2,1,8B,4A,38,80,0F,F5,C1,3B,FB,5C,00,1B,D1,7F,00,08,F2,BB,F8,C2,2E,5E,D7,40,05,7F,D5,1C,E2,7F,B3,E9,80,62,DB,70,0*72
$PIRNSF,5,1,8B,4A,38,80,0F,19,06,8C,0E,9C,00,5B,D1,7F,C0,0A,01,BB,F8,C0,89,C0,A0,C0,12,80,39,02,7E,1D,78,69,82,0B,18,E8,0*0D
$PIRNSF,4,1,8B,4A,38,80,0F,17,83,CC,00,20,00,1B,AF,BF,40,09,81,03,F8,C1,A3,9F,60,40,12,FF,FF,12,D4,5E,43,DB,A1,2F,E6,40,0*7A
$PIRNSF,1,4,8B,4A,38,F9,45,55,55,55,55,55,55,55,55,55,55,55,55,55,55,55,55,55,55,55,55,55,55,55,55,55,55,55,05,5D,F0,5C,0*07
$GNGGA,063955.000,0832.0956,N,07659.6709,E,2,17,0.6,47.6,M,-88.1,M,,0000*52
$GNGLL,0832.0956,N,07659.6709,E,063955.000,A,D*48
$GNGSA,A,3,02,06,17,19,28,24,15,05,12,13,25,,1.1,0.6,0.9,1*3F
$GNGSA,A,3,02,03,04,05,06,07,,,,,,,1.1,0.6,0.9,4*3A
$GNRMC,063955.000,A,0832.0956,N,07659.6709,E,000.0,000.0,260719,,,D*74
$GNVTG,000.0,T,,M,000.0,N,000.0,K,D*16
$GNZDA,063955.000,26,07,2019,00,00*4D
$GNGGA,063956.000,0832.0956,N,07659.6709,E,2,17,0.6,47.6,M,-88.1,M,,0000*51
$GNGLL,0832.0956,N,07659.6709,E,063956.000,A,D*4B
$GNGSA,A,3,02,06,17,19,28,24,15,05,12,13,25,,1.1,0.6,0.9,1*3F
$GNGSA,A,3,02,03,04,05,06,07,,,,,,,1.1,0.6,0.9,4*3A
$GPGSV,3,1,12,05,75,138,48,12,51,335,48,02,40,358,45,24,30,239,36,1*6B
$GPGSV,3,2,12,19,18,070,32,13,15,165,31,25,12,326,38,17,12,083,42,1*67
$GPGSV,3,3,12,06,11,033,35,15,10,199,31,28,05,142,35,41,00,000,50,1*6F
$GIGSV,2,1,07,03,76,151,48,02,64,254,45,05,52,060,50,04,39,136,45,4*7F
$GIGSV,2,2,07,06,38,260,40,07,29,099,45,01,00,000,43,4*49
$GNRMC,063956.000,A,0832.0956,N,07659.6709,E,000.0,000.0,260719,,,D*77
$GNVTG,000.0,T,,M,000.0,N,000.0,K,D*16
$GNZDA,063956.000,26,07,2019,00,00*4E
$GNGGA,063957.000,0832.0956,N,07659.6709,E,2,17,0.6,47.6,M,-88.1,M,,0000*50
$GNGLL,0832.0956,N,07659.6709,E,063957.000,A,D*4A
$GNGSA,A,3,02,06,17,19,28,24,15,05,12,13,25,,1.1,0.6,0.9,1*3F
$GNGSA,A,3,02,03,04,05,06,07,,,,,,,1.1,0.6,0.9,4*3A
$GNRMC,063957.000,A,0832.0956,N,07659.6709,E,000.0,000.0,260719,,,D*76
$GNVTG,000.0,T,,M,000.0,N,000.0,K,D*16
$GNZDA,063957.000,26,07,2019,00,00*4F
$GNGGA,063958.000,0832.0956,N,07659.6709,E,2,17,0.6,47.6,M,-88.1,M,,0000*5F
$GNGLL,0832.0956,N,07659.6709,E,063958.000,A,D*45
$GNGSA,A,3,02,06,17,19,28,24,15,05,12,13,25,,1.1,0.6,0.9,1*3F
$GNGSA,A,3,02,03,04,05,06,07,,,,,,,1.1,0.6,0.9,4*3A
$GNRMC,063958.000,A,0832.0956,N,07659.6709,E,000.0,000.0,260719,,,D*79
$GNVTG,000.0,T,,M,000.0,N,000.0,K,D*16
$GNZDA,063958.000,26,07,2019,00,00*40
$GNGGA,063959.000,0832.0956,N,07659.6709,E,2,17,0.6,47.6,M,-88.1,M,,0000*5E
$GNGLL,0832.0956,N,07659.6709,E,063959.000,A,D*44
$GNGSA,A,3,02,06,17,19,28,24,15,05,12,13,25,,1.1,0.6,0.9,1*3F
$GNGSA,A,3,02,03,04,05,06,07,,,,,,,1.1,0.6,0.9,4*3A
$GPGSV,3,1,12,05,75,138,49,12,51,335,49,02,40,358,46,24,30,239,37,1*69
$GPGSV,3,2,12,19,18,070,33,13,15,165,34,25,12,326,38,17,12,083,43,1*62
$GPGSV,3,3,12,06,11,033,37,15,10,199,32,28,05,142,35,41,00,000,50,1*6E
$GIGSV,2,1,07,03,76,151,48,02,64,254,44,05,52,060,50,04,39,136,46,4*7D
$GIGSV,2,2,07,06,38,260,40,07,29,099,45,01,00,000,43,4*49
$GNRMC,063959.000,A,0832.0956,N,07659.6709,E,000.0,000.0,260719,,,D*78
$GNVTG,000.0,T,,M,000.0,N,000.0,K,D*16
$GNZDA,063959.000,26,07,2019,00,00*41
$GNGGA,064000.000,0832.0956,N,07659.6709,E,2,17,0.6,47.6,M,-88.1,M,,0000*5C
$GNGLL,0832.0956,N,07659.6709,E,064000.000,A,D*46
$GNGSA,A,3,02,06,17,19,28,24,15,05,12,13,25,,1.1,0.6,0.9,1*3F
$GNGSA,A,3,02,03,04,05,06,07,,,,,,,1.1,0.6,0.9,4*3A
$GNRMC,064000.000,A,0832.0956,N,07659.6709,E,000.0,000.0,260719,,,D*7A
$GNVTG,000.0,T,,M,000.0,N,000.0,K,D*16
$GNZDA,064000.000,26,07,2019,00,00*43
$GNGGA,064001.000,0832.0956,N,07659.6709,E,2,17,0.6,47.6,M,-88.1,M,,0000*5D
$GNGLL,0832.0956,N,07659.6709,E,064001.000,A,D*47
$GNGSA,A,3,02,06,17,19,28,24,15,05,12,13,25,,1.1,0.6,0.9,1*3F
$GNGSA,A,3,02,03,04,05,06,07,,,,,,,1.1,0.6,0.9,4*3A
$GNRMC,064001.000,A,0832.0956,N,07659.6709,E,000.0,000.0,260719,,,D*7B
$GNVTG,000.0,T,,M,000.0,N,000.0,K,D*16
$GNZDA,064001.000,26,07,2019,00,00*42
$GNGGA,064002.000,0832.0956,N,07659.6709,E,2,17,0.6,47.6,M,-88.1,M,,0000*5E
$GNGLL,0832.0956,N,07659.6709,E,064002.000,A,D*44
$GNGSA,A,3,02,06,17,19,28,24,15,05,12,13,25,,1.1,0.6,0.9,1*3F
$GNGSA,A,3,02,03,04,05,06,07,,,,,,,1.1,0.6,0.9,4*3A
$GPGSV,3,1,12,05,75,138,48,12,51,335,49,02,40,358,46,24,30,239,38,1*67
$GPGSV,3,2,12,19,18,070,32,13,15,165,33,25,12,326,39,17,12,083,43,1*65
$GPGSV,3,3,12,06,11,033,36,15,10,199,32,28,05,142,36,41,00,000,50,1*6C
$GIGSV,2,1,07,03,76,151,48,02,64,254,44,05,52,060,49,04,39,136,45,4*76
$GIGSV,2,2,07,06,38,260,40,07,29,099,44,01,00,000,43,4*48
$GNRMC,064002.000,A,0832.0956,N,07659.6709,E,000.0,000.0,260719,,,D*78
$GNVTG,000.0,T,,M,000.0,N,000.0,K,D*16
$GNZDA,064002.000,26,07,2019,00,00*41
$GNGGA,064003.000,0832.0956,N,07659.6709,E,2,17,0.6,47.6,M,-88.1,M,,0000*5F
$GNGLL,0832.0956,N,07659.6709,E,064003.000,A,D*45
$GNGSA,A,3,02,06,17,19,28,24,15,05,12,13,25,,1.1,0.6,0.9,1*3F
$GNGSA,A,3,02,03,04,05,06,07,,,,,,,1.1,0.6,0.9,4*3A
$GNRMC,064003.000,A,0832.0956,N,07659.6709,E,000.0,000.0,260719,,,D*79
$GNVTG,000.0,T,,M,000.0,N,000.0,K,D*16
$GNZDA,064003.000,26,07,2019,00,00*40
$GNGGA,064004.000,0832.0956,N,07659.6709,E,2,17,0.6,47.6,M,-88.1,M,,0000*58
$GNGLL,0832.0956,N,07659.6709,E,064004.000,A,D*42
$GNGSA,A,3,02,06,17,19,28,24,15,05,12,13,25,,1.1,0.6,0.9,1*3F
$GNGSA,A,3,02,03,04,05,06,07,,,,,,,1.1,0.6,0.9,4*3A
$GNRMC,064004.000,A,0832.0956,N,07659.6709,E,000.0,000.0,260719,,,D*7E
$GNVTG,000.0,T,,M,000.0,N,000.0,K,D*16
$GNZDA,064004.000,26,07,2019,00,00*47
$GNGGA,064005.000,0832.0956,N,07659.6709,E,2,17,0.6,47.6,M,-88.1,M,,0000*59
$GNGLL,0832.0956,N,07659.6709,E,064005.000,A,D*43
$GNGSA,A,3,02,06,17,19,28,24,15,05,12,13,25,,1.1,0.6,0.9,1*3F
$GNGSA,A,3,02,03,04,05,06,07,,,,,,,1.1,0.6,0.9,4*3A
$GPGSV,3,1,12,05,75,138,48,12,51,335,48,02,40,358,46,24,30,239,37,1*69
$GPGSV,3,2,12,19,18,070,31,13,15,165,35,25,12,326,38,17,12,083,43,1*61
$GPGSV,3,3,12,06,11,033,36,15,10,199,33,28,05,142,35,41,00,000,50,1*6E
$GIGSV,2,1,07,03,76,151,48,02,64,254,45,05,52,060,50,04,39,136,46,4*7C
$GIGSV,2,2,07,06,38,260,40,07,29,099,45,01,00,000,44,4*4E
$GNRMC,064005.000,A,0832.0956,N,07659.6709,E,000.0,000.0,260719,,,D*7F
$GNVTG,000.0,T,,M,000.0,N,000.0,K,D*16
$GNZDA,064005.000,26,07,2019,00,00*46
$PIRNSF,4,2,8B,4A,39,08,70,20,F2,45,BA,F8,04,99,79,4F,2B,AA,4E,97,D3,5B,FB,92,09,35,9E,B7,FF,77,71,4B,B4,2E,A0,0C,A1,48,0*7B
$PIRNSF,6,2,8B,4A,39,08,13,04,E0,89,BD,14,04,25,3A,DB,2B,AD,C4,03,54,F9,5D,B2,1C,B3,27,AB,FF,13,D0,1D,FF,0E,33,16,7E,7C,1*0E
$PIRNSF,7,2,8B,4A,39,08,E7,F2,A3,4D,BD,14,01,2B,42,77,2B,AB,09,57,5B,CE,FB,A6,55,0E,92,2B,FE,CA,C0,1E,81,D3,F1,07,C7,AC,0*7E
$GNGGA,064006.000,0832.0956,N,07659.6709,E,2,17,0.6,47.6,M,-88.1,M,,0000*5A
$GNGLL,0832.0956,N,07659.6709,E,064006.000,A,D*40
$GNGSA,A,3,02,06,17,19,28,24,15,05,12,13,25,,1.1,0.6,0.9,1*3F
$GNGSA,A,3,02,03,04,05,06,07,,,,,,,1.1,0.6,0.9,4*3A
$GNRMC,064006.000,A,0832.0956,N,07659.6709,E,000.0,000.0,260719,,,D*7C
$GNVTG,000.0,T,,M,000.0,N,000.0,K,D*16
$GNZDA,064006.000,26,07,2019,00,00*45
$PIRNSF,3,2,8B,4A,39,0A,EB,A5,52,0D,BA,F8,03,FA,B9,17,2B,AB,DF,3E,F5,DC,83,C0,19,4C,B7,4B,FD,2A,D0,15,B4,76,D3,35,36,38,0*03
$PIRNSF,2,2,8B,4A,39,0B,E0,FD,81,A9,BD,14,04,78,4A,0F,2B,AB,93,5F,D3,12,AA,7A,10,EB,18,57,FF,74,A1,4C,BF,EE,F1,8F,36,B8,0*05
$PIRNSF,5,2,8B,4A,39,0A,93,75,1E,15,BD,14,03,E0,8E,27,2B,AF,6C,C5,D0,66,CA,0A,02,5F,8E,37,FF,6F,61,4E,40,72,92,BE,DB,E4,0*0D
$PIRNSF,1,4,8B,4A,39,79,45,55,55,55,55,55,55,55,55,55,55,55,55,55,55,55,55,55,55,55,55,55,55,55,55,55,55,55,05,9A,F0,5C,0*7E
$GNGGA,064007.000,0832.0956,N,07659.6709,E,2,17,0.6,47.6,M,-88.1,M,,0000*5B
$GNGLL,0832.0956,N,07659.6709,E,064007.000,A,D*41
$GNGSA,A,3,02,06,17,19,28,24,15,05,12,13,25,,1.1,0.6,0.9,1*3F
$GNGSA,A,3,02,03,04,05,06,07,,,,,,,1.1,0.6,0.9,4*3A
$GNRMC,064007.000,A,0832.0956,N,07659.6709,E,000.0,000.0,260719,,,D*7D
$GNVTG,000.0,T,,M,000.0,N,000.0,K,D*16
$GNZDA,064007.000,26,07,2019,00,00*44
$GNGGA,064008.000,0832.0956,N,07659.6709,E,2,17,0.6,47.6,M,-88.1,M,,0000*54
$GNGLL,0832.0956,N,07659.6709,E,064008.000,A,D*4E
$GNGSA,A,3,02,06,17,19,28,24,15,05,12,13,25,,1.1,0.6,0.9,1*3F
$GNGSA,A,3,02,03,04,05,06,07,,,,,,,1.1,0.6,0.9,4*3A
$GPGSV,3,1,12,05,75,138,48,12,51,335,48,02,40,358,46,24,30,239,37,1*69
$GPGSV,3,2,12,19,18,070,32,13,15,165,34,25,12,326,37,17,12,083,42,1*6D
$GPGSV,3,3,12,06,11,033,37,15,10,199,34,28,05,142,35,41,00,000,50,1*68
$GIGSV,2,1,07,03,76,151,48,02,64,254,45,05,52,060,50,04,39,136,46,4*7C
$GIGSV,2,2,07,06,38,260,40,07,29,099,45,01,00,000,44,4*4E
$GNRMC,064008.000,A,0832.0956,N,07659.6709,E,000.0,000.0,260719,,,D*72
$GNVTG,000.0,T,,M,000.0,N,000.0,K,D*16
$GNZDA,064008.000,26,07,2019,00,00*4B
$GNGGA,064009.000,0832.0956,N,07659.6709,E,2,17,0.6,47.6,M,-88.1,M,,0000*55
$GNGLL,0832.0956,N,07659.6709,E,064009.000,A,D*4F
$GNGSA,A,3,02,06,17,19,28,24,15,05,12,13,25,,1.1,0.6,0.9,1*3F
$GNGSA,A,3,02,03,04,05,06,07,,,,,,,1.1,0.6,0.9,4*3A
$GNRMC,064009.000,A,0832.0956,N,07659.6709,E,000.0,000.0,260719,,,D*73
$GNVTG,000.0,T,,M,000.0,N,000.0,K,D*16
$GNZDA,064009.000,26,07,2019,00,00*4A
$GNGGA,064010.000,0832.0956,N,07659.6709,E,2,17,0.6,47.6,M,-88.1,M,,0000*5D
$GNGLL,0832.0956,N,07659.6709,E,064010.000,A,D*47
$GNGSA,A,3,02,06,17,19,28,24,15,05,12,13,25,,1.1,0.6,0.9,1*3F
$GNGSA,A,3,02,03,04,05,06,07,,,,,,,1.1,0.6,0.9,4*3A
$GNRMC,064010.000,A,0832.0956,N,07659.6709,E,000.0,000.0,260719,,,D*7B
$GNVTG,000.0,T,,M,000.0,N,000.0,K,D*16
$GNZDA,064010.000,26,07,2019,00,00*42
$GNGGA,064011.000,0832.0956,N,07659.6709,E,2,17,0.6,47.6,M,-88.1,M,,0000*5C
$GNGLL,0832.0956,N,07659.6709,E,064011.000,A,D*46
$GNGSA,A,3,02,06,17,19,28,24,15,05,12,13,25,,1.1,0.6,0.9,1*3F
$GNGSA,A,3,02,03,04,05,06,07,,,,,,,1.1,0.6,0.9,4*3A
$GPGSV,3,1,12,05,75,138,48,12,51,335,49,02,40,358,45,24,30,239,37,1*6B
$GPGSV,3,2,12,19,18,070,32,13,15,165,34,25,12,326,38,17,12,083,42,1*62
$GPGSV,3,3,12,06,11,033,37,15,10,199,33,28,05,142,35,41,00,000,50,1*6F
$GIGSV,2,1,07,03,76,151,49,02,64,254,45,05,52,060,50,04,39,136,46,4*7D
$GIGSV,2,2,07,06,38,260,41,07,29,099,45,01,00,000,44,4*4F
$GNRMC,064011.000,A,0832.0956,N,07659.6709,E,000.0,000.0,260719,,,D*7A
$GNVTG,000.0,T,,M,000.0,N,000.0,K,D*16
$GNZDA,064011.000,26,07,2019,00,00*43
$GNGGA,064012.000,0832.0956,N,07659.6709,E,2,17,0.6,47.6,M,-88.1,M,,0000*5F
$GNGLL,0832.0956,N,07659.6709,E,064012.000,A,D*45
$GNGSA,A,3,02,06,17,19,28,24,15,05,12,13,25,,1.1,0.6,0.9,1*3F
$GNGSA,A,3,02,03,04,05,06,07,,,,,,,1.1,0.6,0.9,4*3A
$GNRMC,064012.000,A,0832.0956,N,07659.6709,E,000.0,000.0,260719,,,D*79
$GNVTG,000.0,T,,M,000.0,N,000.0,K,D*16
$GNZDA,064012.000,26,07,2019,00,00*40
$GNGGA,064013.000,0832.0956,N,07659.6709,E,2,17,0.6,47.6,M,-88.1,M,,0000*5E
$GNGLL,0832.0956,N,07659.6709,E,064013.000,A,D*44
$GNGSA,A,3,02,06,17,19,28,24,15,05,12,13,25,,1.1,0.6,0.9,1*3F
$GNGSA,A,3,02,03,04,05,06,07,,,,,,,1.1,0.6,0.9,4*3A
$GNRMC,064013.000,A,0832.0956,N,07659.6709,E,000.0,000.0,260719,,,D*78
$GNVTG,000.0,T,,M,000.0,N,000.0,K,D*16
$GNZDA,064013.000,26,07,2019,00,00*41
$GNGGA,064014.000,0832.0956,N,07659.6709,E,2,17,0.6,47.6,M,-88.1,M,,0000*59
$GNGLL,0832.0956,N,07659.6709,E,064014.000,A,D*43
$GNGSA,A,3,02,06,17,19,28,24,15,05,12,13,25,,1.1,0.6,0.9,1*3F
$GNGSA,A,3,02,03,04,05,06,07,,,,,,,1.1,0.6,0.9,4*3A
$GPGSV,3,1,12,05,75,138,48,12,51,335,49,02,40,358,46,24,30,239,38,1*67
$GPGSV,3,2,12,19,18,070,34,13,15,165,33,25,13,326,38,17,12,083,42,1*62
$GPGSV,3,3,12,06,11,033,37,15,10,199,33,28,05,142,35,41,00,000,50,1*6F
$GIGSV,2,1,07,03,76,151,48,02,64,254,44,05,52,060,50,04,39,136,46,4*7D
$GIGSV,2,2,07,06,38,260,40,07,29,099,45,01,00,000,44,4*4E
$GNRMC,064014.000,A,0832.0956,N,07659.6709,E,000.0,000.0,260719,,,D*7F
$GNVTG,000.0,T,,M,000.0,N,000.0,K,D*16
$GNZDA,064014.000,26,07,2019,00,00*46
$GNGGA,064015.000,0832.0956,N,07659.6709,E,2,17,0.6,47.6,M,-88.1,M,,0000*58
$GNGLL,0832.0956,N,07659.6709,E,064015.000,A,D*42
$GNGSA,A,3,02,06,17,19,28,24,15,05,12,13,25,,1.1,0.6,0.9,1*3F
$GNGSA,A,3,02,03,04,05,06,07,,,,,,,1.1,0.6,0.9,4*3A
$GNRMC,064015.000,A,0832.0956,N,07659.6709,E,000.0,000.0,260719,,,D*7E
$GNVTG,000.0,T,,M,000.0,N,000.0,K,D*16
$GNZDA,064015.000,26,07,2019,00,00*47
$GNGGA,064016.000,0832.0956,N,07659.6709,E,2,17,0.6,47.6,M,-88.1,M,,0000*5B
$GNGLL,0832.0956,N,07659.6709,E,064016.000,A,D*41
$GNGSA,A,3,02,06,17,19,28,24,15,05,12,13,25,,1.1,0.6,0.9,1*3F
$GNGSA,A,3,02,03,04,05,06,07,,,,,,,1.1,0.6,0.9,4*3A
$GNRMC,064016.000,A,0832.0956,N,07659.6709,E,000.0,000.0,260719,,,D*7D
$GNVTG,000.0,T,,M,000.0,N,000.0,K,D*16
$GNZDA,064016.000,26,07,2019,00,00*44
$GNGGA,064017.000,0832.0956,N,07659.6709,E,2,17,0.6,47.6,M,-88.1,M,,0000*5A
$GNGLL,0832.0956,N,07659.6709,E,064017.000,A,D*40
$GNGSA,A,3,02,06,17,19,28,24,15,05,12,13,25,,1.1,0.6,0.9,1*3F
$GNGSA,A,3,02,03,04,05,06,07,,,,,,,1.1,0.6,0.9,4*3A
$GPGSV,3,1,12,05,75,138,49,12,51,335,49,02,40,358,46,24,30,239,38,1*66
$GPGSV,3,2,12,19,18,070,34,13,15,165,33,25,13,326,38,17,12,083,41,1*61
$GPGSV,3,3,12,06,11,033,37,15,10,199,32,28,05,142,35,41,00,000,50,1*6E
$GIGSV,2,1,07,03,76,151,48,02,64,254,44,05,52,060,49,04,39,136,45,4*76
$GIGSV,2,2,07,06,38,260,40,07,29,099,45,01,00,000,43,4*49
$GNRMC,064017.000,A,0832.0956,N,07659.6709,E,000.0,000.0,260719,,,D*7C
$GNVTG,000.0,T,,M,000.0,N,000.0,K,D*16
$GNZDA,064017.000,26,07,2019,00,00*45
$PIRNSF,3,3,8B,4A,39,90,50,18,74,37,A2,3D,0F,68,BB,87,1A,57,D2,96,91,F0,73,82,ED,15,E8,BF,46,5A,3C,D2,40,00,0E,15,6E,00,0*09
$PIRNSF,2,3,8B,4A,39,90,B6,97,81,86,F9,09,E3,32,EF,57,9F,6F,FA,C7,08,20,D4,00,44,4B,D7,69,2B,C2,25,FC,00,00,08,79,E7,BC,0*06
$PIRNSF,5,3,8B,4A,39,90,50,18,F0,7B,84,2D,22,69,23,49,BA,25,C1,3D,0A,64,59,43,0C,1B,60,EB,47,DA,43,D2,40,00,15,85,B5,C8,0*7E
$PIRNSF,4,3,8B,4A,39,90,70,3C,40,61,A5,E0,05,67,97,FE,57,2B,AB,E2,E6,AA,B8,1B,62,E9,F8,20,0F,78,7E,A0,C0,00,11,43,FD,38,0*04
$GNGGA,064018.000,0832.0956,N,07659.6709,E,2,17,0.6,47.6,M,-88.1,M,,0000*55
$GNGLL,0832.0956,N,07659.6709,E,064018.000,A,D*4F
$GNGSA,A,3,02,06,17,19,28,24,15,05,12,13,25,,1.1,0.6,0.9,1*3F
$GNGSA,A,3,02,03,04,05,06,07,,,,,,,1.1,0.6,0.9,4*3A
$GNRMC,064018.000,A,0832.0956,N,07659.6709,E,000.0,000.0,260719,,,D*73
$GNVTG,000.0,T,,M,000.0,N,000.0,K,D*16
$GNZDA,064018.000,26,07,2019,00,00*4A
$PIRNSF,6,3,8B,4A,39,90,50,19,34,4B,82,9B,17,50,CA,C6,B8,37,D1,9E,8D,B4,6F,A3,ED,17,60,BF,06,98,38,C1,D8,00,1A,82,74,20,0*7F
$PIRNSF,7,3,8B,4A,39,90,50,18,F0,7B,84,2D,22,69,23,49,BA,25,C1,3D,0A,64,59,43,0C,1B,60,EB,47,DA,43,D2,40,00,1F,AE,E1,FC,1*7A
$PIRNSF,1,4,8B,4A,39,F9,45,55,55,55,55,55,55,55,55,55,55,55,55,55,55,55,55,55,55,55,55,55,55,55,55,55,55,55,07,D0,F0,5C,0*01
$GNGGA,064019.000,0832.0956,N,07659.6709,E,2,17,0.6,47.6,M,-88.1,M,,0000*54
$GNGLL,0832.0956,N,07659.6709,E,064019.000,A,D*4E
$GNGSA,A,3,02,06,17,19,28,24,15,05,12,13,25,,1.1,0.6,0.9,1*3F
$GNGSA,A,3,02,03,04,05,06,07,,,,,,,1.1,0.6,0.9,4*3A
$GNRMC,064019.000,A,0832.0956,N,07659.6709,E,000.0,000.0,260719,,,D*72
$GNVTG,000.0,T,,M,000.0,N,000.0,K,D*16
$GNZDA,064019.000,26,07,2019,00,00*4B
$GNGGA,064020.000,0832.0956,N,07659.6709,E,2,17,0.6,47.6,M,-88.1,M,,0000*5E
$GNGLL,0832.0956,N,07659.6709,E,064020.000,A,D*44
$GNGSA,A,3,02,06,17,19,28,24,15,05,12,13,25,,1.1,0.6,0.9,1*3F
$GNGSA,A,3,02,03,04,05,06,07,,,,,,,1.1,0.6,0.9,4*3A
$GPGSV,3,1,12,05,75,138,48,12,51,335,48,02,40,358,45,24,30,239,37,1*6A
$GPGSV,3,2,12,19,18,070,33,13,15,165,32,25,13,326,38,17,12,083,41,1*67
$GPGSV,3,3,12,06,11,033,36,15,10,199,32,28,05,142,34,41,00,000,49,1*66
$GIGSV,2,1,07,03,76,151,48,02,64,254,44,05,52,060,49,04,39,136,45,4*76
$GIGSV,2,2,07,06,38,260,40,07,29,099,44,01,00,000,43,4*48
$GNRMC,064020.000,A,0832.0956,N,07659.6709,E,000.0,000.0,260719,,,D*78
$GNVTG,000.0,T,,M,000.0,N,000.0,K,D*16
$GNZDA,064020.000,26,07,2019,00,00*41
$GNGGA,064021.000,0832.0956,N,07659.6709,E,2,17,0.6,47.6,M,-88.1,M,,0000*5F
$GNGLL,0832.0956,N,07659.6709,E,064021.000,A,D*45
$GNGSA,A,3,02,06,17,19,28,24,15,05,12,13,25,,1.1,0.6,0.9,1*3F
$GNGSA,A,3,02,03,04,05,06,07,,,,,,,1.1,0.6,0.9,4*3A
$GNRMC,064021.000,A,0832.0956,N,07659.6709,E,000.0,000.0,260719,,,D*79
$GNVTG,000.0,T,,M,000.0,N,000.0,K,D*16
$GNZDA,064021.000,26,07,2019,00,00*40
$GNGGA,064022.000,0832.0956,N,07659.6709,E,2,17,0.6,47.6,M,-88.1,M,,0000*5C
$GNGLL,0832.0956,N,07659.6709,E,064022.000,A,D*46
$GNGSA,A,3,02,06,17,19,28,24,15,05,12,13,25,,1.1,0.6,0.9,1*3F
$GNGSA,A,3,02,03,04,05,06,07,,,,,,,1.1,0.6,0.9,4*3A
$GNRMC,064022.000,A,0832.0956,N,07659.6709,E,000.0,000.0,260719,,,D*7A
$GNVTG,000.0,T,,M,000.0,N,000.0,K,D*16
$GNZDA,064022.000,26,07,2019,00,00*43
$GNGGA,064023.000,0832.0956,N,07659.6709,E,2,17,0.6,47.6,M,-88.1,M,,0000*5D
$GNGLL,0832.0956,N,07659.6709,E,064023.000,A,D*47
$GNGSA,A,3,02,06,17,19,28,24,15,05,12,13,25,,1.1,0.6,0.9,1*3F
$GNGSA,A,3,02,03,04,05,06,07,,,,,,,1.1,0.6,0.9,4*3A
$GPGSV,3,1,12,05,75,138,48,12,51,335,48,02,40,358,45,24,30,239,36,1*6B
$GPGSV,3,2,12,19,18,070,33,13,15,165,32,25,13,326,37,17,12,083,41,1*68
$GPGSV,3,3,12,06,11,033,36,15,10,199,31,28,05,142,34,41,00,000,49,1*65
$GIGSV,2,1,07,03,76,151,48,02,64,254,44,05,52,060,49,04,39,136,45,4*76
$GIGSV,2,2,07,06,38,260,40,07,29,099,44,01,00,000,43,4*48
$GNRMC,064023.000,A,0832.0956,N,07659.6709,E,000.0,000.0,260719,,,D*7B
$GNVTG,000.0,T,,M,000.0,N,000.0,K,D*16
$GNZDA,064023.000,26,07,2019,00,00*42
$GNGGA,064024.000,0832.0956,N,07659.6709,E,2,17,0.6,47.6,M,-88.1,M,,0000*5A
$GNGLL,0832.0956,N,07659.6709,E,064024.000,A,D*40
$GNGSA,A,3,02,06,17,19,28,24,15,05,12,13,25,,1.1,0.6,0.9,1*3F
$GNGSA,A,3,02,03,04,05,06,07,,,,,,,1.1,0.6,0.9,4*3A
$GNRMC,064024.000,A,0832.0956,N,07659.6709,E,000.0,000.0,260719,,,D*7C
$GNVTG,000.0,T,,M,000.0,N,000.0,K,D*16
$GNZDA,064024.000,26,07,2019,00,00*45
$GNGGA,064025.000,0832.0956,N,07659.6709,E,2,17,0.6,47.6,M,-88.1,M,,0000*5B
$GNGLL,0832.0956,N,07659.6709,E,064025.000,A,D*41
$GNGSA,A,3,02,06,17,19,28,24,15,05,12,13,25,,1.1,0.6,0.9,1*3F
$GNGSA,A,3,02,03,04,05,06,07,,,,,,,1.1,0.6,0.9,4*3A
$GNRMC,064025.000,A,0832.0956,N,07659.6709,E,000.0,000.0,260719,,,D*7D
$GNVTG,000.0,T,,M,000.0,N,000.0,K,D*16
$GNZDA,064025.000,26,07,2019,00,00*44
$GNGGA,064026.000,0832.0956,N,07659.6709,E,2,17,0.6,47.6,M,-88.1,M,,0000*58
$GNGLL,0832.0956,N,07659.6709,E,064026.000,A,D*42
$GNGSA,A,3,02,06,17,19,28,24,15,05,12,13,25,,1.1,0.6,0.9,1*3F
$GNGSA,A,3,02,03,04,05,06,07,,,,,,,1.1,0.6,0.9,4*3A
$GPGSV,3,1,12,05,75,138,48,12,51,335,48,02,40,358,45,24,30,239,35,1*68
$GPGSV,3,2,12,19,18,070,33,13,15,165,32,25,13,326,37,17,12,083,41,1*68
$GPGSV,3,3,12,06,11,033,36,15,10,199,32,28,05,142,33,41,00,000,49,1*61
$GIGSV,2,1,07,03,76,151,47,02,64,254,43,05,52,060,49,04,39,136,45,4*7E
$GIGSV,2,2,07,06,38,260,39,07,29,099,44,01,00,000,43,4*46
$GNRMC,064026.000,A,0832.0956,N,07659.6709,E,000.0,000.0,260719,,,D*7E
$GNVTG,000.0,T,,M,000.0,N,000.0,K,D*16
$GNZDA,064026.000,26,07,2019,00,00*47
$GNGGA,064027.000,0832.0956,N,07659.6709,E,2,17,0.6,47.6,M,-88.1,M,,0000*59
$GNGLL,0832.0956,N,07659.6709,E,064027.000,A,D*43
$GNGSA,A,3,02,06,17,19,28,24,15,05,12,13,25,,1.1,0.6,0.9,1*3F
$GNGSA,A,3,02,03,04,05,06,07,,,,,,,1.1,0.6,0.9,4*3A
$GNRMC,064027.000,A,0832.0956,N,07659.6709,E,000.0,000.0,260719,,,D*7F
$GNVTG,000.0,T,,M,000.0,N,000.0,K,D*16
$GNZDA,064027.000,26,07,2019,00,00*46
$GNGGA,064028.000,0832.0956,N,07659.6709,E,2,17,0.6,47.6,M,-88.1,M,,0000*56
$GNGLL,0832.0956,N,07659.6709,E,064028.000,A,D*4C
$GNGSA,A,3,02,06,17,19,28,24,15,05,12,13,25,,1.1,0.6,0.9,1*3F
$GNGSA,A,3,02,03,04,05,06,07,,,,,,,1.1,0.6,0.9,4*3A
$GNRMC,064028.000,A,0832.0956,N,07659.6709,E,000.0,000.0,260719,,,D*70
$GNVTG,000.0,T,,M,000.0,N,000.0,K,D*16
$GNZDA,064028.000,26,07,2019,00,00*49
$GNGGA,064029.000,0832.0956,N,07659.6709,E,2,17,0.6,47.6,M,-88.1,M,,0000*57
$GNGLL,0832.0956,N,07659.6709,E,064029.000,A,D*4D
$GNGSA,A,3,02,06,17,19,28,24,15,05,12,13,25,,1.1,0.6,0.9,1*3F
$GNGSA,A,3,02,03,04,05,06,07,,,,,,,1.1,0.6,0.9,4*3A
$GPGSV,3,1,12,05,75,138,48,12,51,335,48,02,40,358,46,24,30,239,36,1*68
$GPGSV,3,2,12,19,18,070,33,13,15,165,32,25,13,326,38,17,12,083,41,1*67
$GPGSV,3,3,12,06,11,033,36,15,10,199,33,28,05,142,33,41,00,000,49,1*60
$GIGSV,2,1,07,03,76,151,48,02,64,254,44,05,52,060,49,04,39,136,45,4*76
$GIGSV,2,2,07,06,38,260,40,07,29,099,44,01,00,000,43,4*48
$GNRMC,064029.000,A,0832.0956,N,07659.6709,E,000.0,000.0,260719,,,D*71
$GNVTG,000.0,T,,M,000.0,N,000.0,K,D*16
$GNZDA,064029.000,26,07,2019,00,00*48
$PIRNSF,7,4,8B,4A,3A,18,50,19,34,4B,82,9B,17,50,CA,C6,B8,37,D1,9E,8D,B4,6F,A3,ED,17,60,BF,06,98,38,C1,D8,00,1F,1A,25,4C,0*0D
$PIRNSF,3,4,8B,4A,3A,18,50,18,B4,8B,A4,1C,1D,D8,D2,C6,78,39,D1,E6,90,34,8B,A5,1D,1C,E0,C2,C5,74,2E,B1,90,00,0E,63,EE,A8,0*03
$PIRNSF,2,4,8B,4A,3A,19,25,55,55,55,55,55,55,55,55,55,55,55,55,55,55,55,55,55,55,55,55,55,55,55,55,55,55,55,09,18,F0,5C,0*78
$PIRNSF,5,4,8B,4A,3A,18,50,19,34,4B,82,9B,17,50,CA,C6,B8,37,D1,9E,8D,B4,6F,A3,ED,17,60,BF,06,98,38,C1,D8,00,15,31,71,78,0*77
$PIRNSF,4,4,8B,4A,3A,18,50,18,34,61,A3,0D,19,68,CF,43,DA,10,D0,86,82,F4,07,C1,9E,35,E9,6B,48,DA,34,D1,28,00,13,39,85,04,0*07
$GNGGA,064030.000,0832.0956,N,07659.6709,E,2,17,0.6,47.6,M,-88.1,M,,0000*5F
$GNGLL,0832.0956,N,07659.6709,E,064030.000,A,D*45
$GNGSA,A,3,02,06,17,19,28,24,15,05,12,13,25,,1.1,0.6,0.9,1*3F
$GNGSA,A,3,02,03,04,05,06,07,,,,,,,1.1,0.6,0.9,4*3A
$GNRMC,064030.000,A,0832.0956,N,07659.6709,E,000.0,000.0,260719,,,D*79
$GNVTG,000.0,T,,M,000.0,N,000.0,K,D*16
$GNZDA,064030.000,26,07,2019,00,00*40
$PIRNSF,1,4,8B,4A,3A,79,57,10,00,00,88,84,8F,11,8C,66,1C,9C,5E,08,3A,06,3C,40,20,D8,72,71,78,00,00,00,00,00,07,49,1E,8C,1*76
$PIRNSF,6,4,8B,4A,3A,18,50,19,70,81,A3,1D,15,68,B3,46,5A,31,D1,B6,8E,74,81,A4,1D,23,68,FF,45,7A,25,D1,18,00,1A,C3,0D,10,0*71
$GNGGA,064031.000,0832.0956,N,07659.6709,E,2,17,0.6,47.6,M,-88.1,M,,0000*5E
$GNGLL,0832.0956,N,07659.6709,E,064031.000,A,D*44
$GNGSA,A,3,02,06,17,19,28,24,15,05,12,13,25,,1.1,0.6,0.9,1*3F
$GNGSA,A,3,02,03,04,05,06,07,,,,,,,1.1,0.6,0.9,4*3A
$GNRMC,064031.000,A,0832.0956,N,07659.6709,E,000.0,000.0,260719,,,D*78
$GNVTG,000.0,T,,M,000.0,N,000.0,K,D*16
$GNZDA,064031.000,26,07,2019,00,00*41
$GNGGA,064032.000,0832.0956,N,07659.6709,E,2,17,0.6,47.6,M,-88.1,M,,0000*5D
$GNGLL,0832.0956,N,07659.6709,E,064032.000,A,D*47
$GNGSA,A,3,02,06,17,19,28,24,15,05,12,13,25,,1.1,0.6,0.9,1*3F
$GNGSA,A,3,02,03,04,05,06,07,,,,,,,1.1,0.6,0.9,4*3A
$GPGSV,3,1,12,05,75,138,48,12,52,335,48,02,40,358,46,24,30,239,37,1*6A
$GPGSV,3,2,12,19,18,070,34,13,15,165,33,25,13,326,38,17,12,083,41,1*61
$GPGSV,3,3,12,06,11,033,36,15,10,199,32,28,05,142,34,41,00,000,49,1*66
$GIGSV,2,1,07,03,76,151,47,02,64,254,44,05,52,060,49,04,39,136,45,4*79
$GIGSV,2,2,07,06,38,260,39,07,29,099,44,01,00,000,43,4*46
$GNRMC,064032.000,A,0832.0956,N,07659.6709,E,000.0,000.0,260719,,,D*7B
$GNVTG,000.0,T,,M,000.0,N,000.0,K,D*16
$GNZDA,064032.000,26,07,2019,00,00*42
$GNGGA,064033.000,0832.0956,N,07659.6709,E,2,17,0.6,47.6,M,-88.1,M,,0000*5C
$GNGLL,0832.0956,N,07659.6709,E,064033.000,A,D*46
$GNGSA,A,3,02,06,17,19,28,24,15,05,12,13,25,,1.1,0.6,0.9,1*3F
$GNGSA,A,3,02,03,04,05,06,07,,,,,,,1.1,0.6,0.9,4*3A
