$GNGGA,044855.000,0832.0957,N,07659.6714,E,2,13,0.8,52.6,M,-88.1,M,,0000*55
$GNGLL,0832.0957,N,07659.6714,E,044855.000,A,D*41
$GNGSA,A,3,02,06,17,19,28,24,30,,,,,,1.5,0.8,1.2,1*3B
$GNGSA,A,3,02,03,04,05,06,07,,,,,,,1.5,0.8,1.2,4*3A
$GNRMC,044855.000,A,0832.0957,N,07659.6714,E,000.0,000.0,260719,,,D*7D
$GNVTG,000.0,T,,M,000.0,N,000.0,K,D*16
$GNZDA,044855.000,26,07,2019,00,00*49
$GNGGA,044856.000,0832.0957,N,07659.6714,E,2,13,0.8,52.6,M,-88.1,M,,0000*56
$GNGLL,0832.0957,N,07659.6714,E,044856.000,A,D*42
$GNGSA,A,3,02,06,17,19,28,24,30,,,,,,1.5,0.8,1.2,1*3B
$GNGSA,A,3,02,03,04,05,06,07,,,,,,,1.5,0.8,1.2,4*3A
$GPGSV,4,1,13,02,65,275,43,06,53,011,50,28,37,098,47,24,28,299,40,1*66
$GPGSV,4,2,13,05,26,185,38,19,26,019,47,17,20,035,44,13,16,209,28,1*67
$GPGSV,4,3,13,30,10,155,34,12,06,326,34,15,03,239,,41,00,000,49,1*67
$GPGSV,4,4,13,40,00,000,42,1*54
$GIGSV,2,1,07,03,76,151,46,02,67,291,45,05,53,080,48,04,46,122,45,4*70
$GIGSV,2,2,07,06,38,262,38,07,29,100,43,01,00,000,40,4*40
$GNRMC,044856.000,A,0832.0957,N,07659.6714,E,000.0,000.0,260719,,,D*7E
$GNVTG,000.0,T,,M,000.0,N,000.0,K,D*16
$GNZDA,044856.000,26,07,2019,00,00*4A
$GNGGA,044857.000,0832.0956,N,07659.6714,E,2,14,0.7,52.9,M,-88.1,M,,0000*51
$GNGLL,0832.0956,N,07659.6714,E,044857.000,A,D*42
$GNGSA,A,3,02,06,17,19,28,24,30,05,,,,,1.4,0.7,1.2,1*30
$GNGSA,A,3,02,03,04,05,06,07,,,,,,,1.4,0.7,1.2,4*34
$GNRMC,044857.000,A,0832.0956,N,07659.6714,E,000.0,000.0,260719,,,D*7E
$GNVTG,000.0,T,,M,000.0,N,000.0,K,D*16
$GNZDA,044857.000,26,07,2019,00,00*4B
$GNGGA,044858.000,0832.0956,N,07659.6714,E,2,14,0.7,52.9,M,-88.1,M,,0000*5E
$GNGLL,0832.0956,N,07659.6714,E,044858.000,A,D*4D
$GNGSA,A,3,02,06,17,19,28,24,30,05,,,,,1.4,0.7,1.2,1*30
$GNGSA,A,3,02,03,04,05,06,07,,,,,,,1.4,0.7,1.2,4*34
$GNRMC,044858.000,A,0832.0956,N,07659.6714,E,000.0,000.0,260719,,,D*71
$GNVTG,000.0,T,,M,000.0,N,000.0,K,D*16
$GNZDA,044858.000,26,07,2019,00,00*44
$GNGGA,044859.000,0832.0956,N,07659.6714,E,2,14,0.7,52.9,M,-88.1,M,,0000*5F
$GNGLL,0832.0956,N,07659.6714,E,044859.000,A,D*4C
$GNGSA,A,3,02,06,17,19,28,24,30,05,,,,,1.4,0.7,1.2,1*30
$GNGSA,A,3,02,03,04,05,06,07,,,,,,,1.4,0.7,1.2,4*34
$GPGSV,4,1,13,02,65,275,43,06,53,011,50,28,37,098,47,24,28,299,41,1*67
$GPGSV,4,2,13,05,26,185,38,19,26,019,47,17,20,035,44,13,16,209,27,1*68
$GPGSV,4,3,13,30,10,155,34,12,06,326,33,15,03,239,23,41,00,000,49,1*61
$GPGSV,4,4,13,40,00,000,42,1*54
$GIGSV,2,1,07,03,76,151,46,02,67,291,45,05,53,080,48,04,46,122,45,4*70
$GIGSV,2,2,07,06,38,262,39,07,29,100,44,01,00,000,40,4*46
$GNRMC,044859.000,A,0832.0956,N,07659.6714,E,000.0,000.0,260719,,,D*70
$GNVTG,000.0,T,,M,000.0,N,000.0,K,D*16
$GNZDA,044859.000,26,07,2019,00,00*45
$GNGGA,044900.000,0832.0956,N,07659.6714,E,2,15,0.7,52.7,M,-88.1,M,,0000*5D
$GNGLL,0832.0956,N,07659.6714,E,044900.000,A,D*41
$GNGSA,A,3,02,06,17,19,28,24,30,05,12,,,,1.2,0.7,1.0,1*37
$GNGSA,A,3,02,03,04,05,06,07,,,,,,,1.2,0.7,1.0,4*30
$GNRMC,044900.000,A,0832.0956,N,07659.6714,E,000.0,000.0,260719,,,D*7D
$GNVTG,000.0,T,,M,000.0,N,000.0,K,D*16
$GNZDA,044900.000,26,07,2019,00,00*48
$GNGGA,044901.000,0832.0956,N,07659.6714,E,2,15,0.7,52.7,M,-88.1,M,,0000*5C
$GNGLL,0832.0956,N,07659.6714,E,044901.000,A,D*40
$GNGSA,A,3,02,06,17,19,28,24,30,05,12,,,,1.2,0.7,1.0,1*37
$GNGSA,A,3,02,03,04,05,06,07,,,,,,,1.2,0.7,1.0,4*30
$GNRMC,044901.000,A,0832.0956,N,07659.6714,E,000.0,000.0,260719,,,D*7C
$GNVTG,000.0,T,,M,000.0,N,000.0,K,D*16
$GNZDA,044901.000,26,07,2019,00,00*49
$GNGGA,044902.000,0832.0956,N,07659.6714,E,2,15,0.7,52.7,M,-88.1,M,,0000*5F
$GNGLL,0832.0956,N,07659.6714,E,044902.000,A,D*43
$GNGSA,A,3,02,06,17,19,28,24,30,05,12,,,,1.2,0.7,1.0,1*37
$GNGSA,A,3,02,03,04,05,06,07,,,,,,,1.2,0.7,1.0,4*30
$GPGSV,4,1,13,02,65,275,43,06,53,011,49,28,37,098,47,24,28,299,40,1*6E
$GPGSV,4,2,13,05,26,185,38,19,26,019,46,17,20,035,44,13,16,209,27,1*69
$GPGSV,4,3,13,30,10,155,33,12,06,326,34,15,03,239,22,41,00,000,50,1*68
$GPGSV,4,4,13,40,00,000,43,1*55
$GIGSV,2,1,07,03,76,151,47,02,67,291,45,05,53,080,48,04,46,122,45,4*71
$GIGSV,2,2,07,06,38,262,39,07,29,100,44,01,00,000,40,4*46
$GNRMC,044902.000,A,0832.0956,N,07659.6714,E,000.0,000.0,260719,,,D*7F
$GNVTG,000.0,T,,M,000.0,N,000.0,K,D*16
$GNZDA,044902.000,26,07,2019,00,00*4A
$GNGGA,044903.000,0832.0956,N,07659.6714,E,2,15,0.7,52.7,M,-88.1,M,,0000*5E
$GNGLL,0832.0956,N,07659.6714,E,044903.000,A,D*42
$GNGSA,A,3,02,06,17,19,28,24,30,05,12,,,,1.2,0.7,1.0,1*37
$GNGSA,A,3,02,03,04,05,06,07,,,,,,,1.2,0.7,1.0,4*30
$GNRMC,044903.000,A,0832.0956,N,07659.6714,E,000.0,000.0,260719,,,D*7E
$GNVTG,000.0,T,,M,000.0,N,000.0,K,D*16
$GNZDA,044903.000,26,07,2019,00,00*4B
$GNGGA,044904.000,0832.0956,N,07659.6714,E,2,15,0.7,52.7,M,-88.1,M,,0000*59
$GNGLL,0832.0956,N,07659.6714,E,044904.000,A,D*45
$GNGSA,A,3,02,06,17,19,28,24,30,05,12,,,,1.2,0.7,1.0,1*37
$GNGSA,A,3,02,03,04,05,06,07,,,,,,,1.2,0.7,1.0,4*30
$GNRMC,044904.000,A,0832.0956,N,07659.6714,E,000.0,000.0,260719,,,D*79
$GNVTG,000.0,T,,M,000.0,N,000.0,K,D*16
$GNZDA,044904.000,26,07,2019,00,00*4C
$GNGGA,044905.000,0832.0956,N,07659.6714,E,2,15,0.7,52.7,M,-88.1,M,,0000*58
$GNGLL,0832.0956,N,07659.6714,E,044905.000,A,D*44
$GNGSA,A,3,02,06,17,19,28,24,30,05,12,,,,1.2,0.7,1.0,1*37
$GNGSA,A,3,02,03,04,05,06,07,,,,,,,1.2,0.7,1.0,4*30
$GPGSV,4,1,13,02,65,275,44,06,53,011,50,28,37,098,47,24,28,299,41,1*60
$GPGSV,4,2,13,05,26,185,37,19,26,019,47,17,20,035,44,13,16,209,27,1*67
$GPGSV,4,3,13,30,10,155,33,12,06,326,34,15,03,239,23,41,00,000,50,1*69
$GPGSV,4,4,13,40,00,000,43,1*55
$GIGSV,2,1,07,03,76,151,47,02,67,291,45,05,53,080,49,04,46,122,45,4*70
$GIGSV,2,2,07,06,38,262,39,07,29,100,44,01,00,000,41,4*47
$GNRMC,044905.000,A,0832.0956,N,07659.6714,E,000.0,000.0,260719,,,D*78
$GNVTG,000.0,T,,M,000.0,N,000.0,K,D*16
$GNZDA,044905.000,26,07,2019,00,00*4D
$PIRNSF,3,3,8B,49,23,91,AF,FF,6F,F7,00,12,69,8A,03,F8,97,12,1F,DF,04,2B,46,98,A0,3D,00,00,00,00,00,00,00,00,0D,7D,2E,D8,0*79
$PIRNSF,2,3,8B,49,23,90,50,18,EC,5B,83,3C,1B,68,EB,47,DA,20,C1,1D,88,A4,49,42,6B,15,60,B7,06,3A,35,D1,C8,00,0A,2A,7A,CC,0*78
$PIRNSF,5,3,8B,49,23,90,50,18,34,4D,A2,AD,20,E8,CB,43,FA,16,D0,96,84,B4,1D,C2,2E,32,69,4F,48,5A,32,D1,40,00,16,64,C3,34,1*74
$PIRNSF,4,3,8B,49,23,91,AF,FF,6F,F7,00,12,69,8A,03,F8,97,12,FF,6D,FE,B6,26,98,A0,3C,00,00,00,00,00,00,00,00,10,A7,F0,84,0*7A
$GNGGA,044906.000,0832.0956,N,07659.6714,E,2,15,0.7,52.7,M,-88.1,M,,0000*5B
$GNGLL,0832.0956,N,07659.6714,E,044906.000,A,D*47
$GNGSA,A,3,02,06,17,19,28,24,30,05,12,,,,1.2,0.7,1.0,1*37
$GNGSA,A,3,02,03,04,05,06,07,,,,,,,1.2,0.7,1.0,4*30
$GNRMC,044906.000,A,0832.0956,N,07659.6714,E,000.0,000.0,260719,,,D*7B
$GNVTG,000.0,T,,M,000.0,N,000.0,K,D*16
$GNZDA,044906.000,26,07,2019,00,00*4E
$PIRNSF,6,3,8B,49,23,90,50,18,B4,83,A3,DC,19,60,B2,C5,B8,30,C1,A6,8E,74,79,A4,2D,18,68,AF,04,34,24,A1,38,00,1B,78,9C,EC,1*0A
$PIRNSF,7,3,8B,49,23,90,50,18,34,4D,A2,AD,20,E8,CB,43,FA,16,D0,96,84,B4,1D,C2,2E,32,69,4F,48,5A,32,D1,40,00,1C,4F,97,00,0*0B
$PIRNSF,1,4,8B,49,23,F9,45,55,55,55,55,55,55,55,55,55,55,55,55,55,55,55,55,55,55,55,55,55,55,55,55,55,55,55,06,AF,F0,5C,0*00
$GNGGA,044907.000,0832.0956,N,07659.6714,E,2,15,0.7,52.7,M,-88.1,M,,0000*5A
$GNGLL,0832.0956,N,07659.6714,E,044907.000,A,D*46
$GNGSA,A,3,02,06,17,19,28,24,30,05,12,,,,1.2,0.7,1.0,1*37
$GNGSA,A,3,02,03,04,05,06,07,,,,,,,1.2,0.7,1.0,4*30
$GNRMC,044907.000,A,0832.0956,N,07659.6714,E,000.0,000.0,260719,,,D*7A
$GNVTG,000.0,T,,M,000.0,N,000.0,K,D*16
$GNZDA,044907.000,26,07,2019,00,00*4F
$GNGGA,044908.000,0832.0956,N,07659.6714,E,2,15,0.7,52.7,M,-88.1,M,,0000*55
$GNGLL,0832.0956,N,07659.6714,E,044908.000,A,D*49
$GNGSA,A,3,02,06,17,19,28,24,30,05,12,,,,1.2,0.7,1.0,1*37
$GNGSA,A,3,02,03,04,05,06,07,,,,,,,1.2,0.7,1.0,4*30
$GPGSV,4,1,13,02,65,275,44,06,53,011,50,28,37,098,47,24,29,299,41,1*61
$GPGSV,4,2,13,05,26,185,38,19,26,019,47,17,20,035,44,13,16,209,27,1*68
$GPGSV,4,3,13,30,10,155,34,12,06,326,33,15,03,239,24,41,00,000,49,1*66
$GPGSV,4,4,13,40,00,000,43,1*55
$GIGSV,2,1,07,03,76,151,46,02,67,291,45,05,53,080,48,04,46,122,45,4*70
$GIGSV,2,2,07,06,38,262,38,07,29,100,43,01,00,000,40,4*40
$GNRMC,044908.000,A,0832.0956,N,07659.6714,E,000.0,000.0,260719,,,D*75
$GNVTG,000.0,T,,M,000.0,N,000.0,K,D*16
$GNZDA,044908.000,26,07,2019,00,00*40
$GNGGA,044909.000,0832.0956,N,07659.6714,E,2,15,0.7,52.7,M,-88.1,M,,0000*54
$GNGLL,0832.0956,N,07659.6714,E,044909.000,A,D*48
$GNGSA,A,3,02,06,17,19,28,24,30,05,12,,,,1.2,0.7,1.0,1*37
$GNGSA,A,3,02,03,04,05,06,07,,,,,,,1.2,0.7,1.0,4*30
$GNRMC,044909.000,A,0832.0956,N,07659.6714,E,000.0,000.0,260719,,,D*74
$GNVTG,000.0,T,,M,000.0,N,000.0,K,D*16
$GNZDA,044909.000,26,07,2019,00,00*41
$GNGGA,044910.000,0832.0956,N,07659.6714,E,2,15,0.7,52.7,M,-88.1,M,,0000*5C
$GNGLL,0832.0956,N,07659.6714,E,044910.000,A,D*40
$GNGSA,A,3,02,06,17,19,28,24,30,05,12,,,,1.2,0.7,1.0,1*37
$GNGSA,A,3,02,03,04,05,06,07,,,,,,,1.2,0.7,1.0,4*30
$GNRMC,044910.000,A,0832.0956,N,07659.6714,E,000.0,000.0,260719,,,D*7C
$GNVTG,000.0,T,,M,000.0,N,000.0,K,D*16
$GNZDA,044910.000,26,07,2019,00,00*49
$GNGGA,044911.000,0832.0956,N,07659.6714,E,2,15,0.7,52.7,M,-88.1,M,,0000*5D
$GNGLL,0832.0956,N,07659.6714,E,044911.000,A,D*41
$GNGSA,A,3,02,06,17,19,28,24,30,05,12,,,,1.2,0.7,1.0,1*37
$GNGSA,A,3,02,03,04,05,06,07,,,,,,,1.2,0.7,1.0,4*30
$GPGSV,4,1,13,02,65,275,43,06,53,011,49,28,37,098,47,24,29,299,40,1*6F
$GPGSV,4,2,13,05,26,185,38,19,26,019,46,17,20,035,44,13,16,209,26,1*68
$GPGSV,4,3,13,30,10,155,33,12,06,326,33,15,03,239,26,41,00,000,49,1*63
$GPGSV,4,4,13,40,00,000,42,1*54
$GIGSV,2,1,07,03,76,151,47,02,67,291,46,05,53,080,49,04,46,122,46,4*70
$GIGSV,2,2,07,06,38,262,39,07,29,100,44,01,00,000,41,4*47
$GNRMC,044911.000,A,0832.0956,N,07659.6714,E,000.0,000.0,260719,,,D*7D
$GNVTG,000.0,T,,M,000.0,N,000.0,K,D*16
$GNZDA,044911.000,26,07,2019,00,00*48
$GNGGA,044912.000,0832.0956,N,07659.6714,E,2,15,0.7,52.7,M,-88.1,M,,0000*5E
$GNGLL,0832.0956,N,07659.6714,E,044912.000,A,D*42
$GNGSA,A,3,02,06,17,19,28,24,30,05,12,,,,1.2,0.7,1.0,1*37
$GNGSA,A,3,02,03,04,05,06,07,,,,,,,1.2,0.7,1.0,4*30
$GNRMC,044912.000,A,0832.0956,N,07659.6714,E,000.0,000.0,260719,,,D*7E
$GNVTG,000.0,T,,M,000.0,N,000.0,K,D*16
$GNZDA,044912.000,26,07,2019,00,00*4B
$GNGGA,044913.000,0832.0956,N,07659.6714,E,2,15,0.7,52.7,M,-88.1,M,,0000*5F
$GNGLL,0832.0956,N,07659.6714,E,044913.000,A,D*43
$GNGSA,A,3,02,06,17,19,28,24,30,05,12,,,,1.2,0.7,1.0,1*37
$GNGSA,A,3,02,03,04,05,06,07,,,,,,,1.2,0.7,1.0,4*30
$GNRMC,044913.000,A,0832.0956,N,07659.6714,E,000.0,000.0,260719,,,D*7F
$GNVTG,000.0,T,,M,000.0,N,000.0,K,D*16
$GNZDA,044913.000,26,07,2019,00,00*4A
$GNGGA,044914.000,0832.0956,N,07659.6714,E,2,15,0.7,52.7,M,-88.1,M,,0000*58
$GNGLL,0832.0956,N,07659.6714,E,044914.000,A,D*44
$GNGSA,A,3,02,06,17,19,28,24,30,05,12,,,,1.2,0.7,1.0,1*37
$GNGSA,A,3,02,03,04,05,06,07,,,,,,,1.2,0.7,1.0,4*30
$GPGSV,4,1,13,02,65,275,43,40,63,250,42,06,53,011,49,28,37,099,47,1*65
$GPGSV,4,2,13,24,29,299,40,05,26,185,39,19,26,019,46,17,20,035,44,1*68
$GPGSV,4,3,13,13,16,209,26,30,10,155,32,12,06,326,33,15,03,239,25,1*63
$GPGSV,4,4,13,41,00,000,49,1*5E
$GIGSV,2,1,07,03,76,151,47,02,67,291,45,05,53,080,49,04,46,122,45,4*70
$GIGSV,2,2,07,06,38,262,39,07,29,100,44,01,00,000,41,4*47
$GNRMC,044914.000,A,0832.0956,N,07659.6714,E,000.0,000.0,260719,,,D*78
$GNVTG,000.0,T,,M,000.0,N,000.0,K,D*16
$GNZDA,044914.000,26,07,2019,00,00*4D
$GNGGA,044915.000,0832.0956,N,07659.6714,E,2,15,0.7,52.7,M,-88.1,M,,0000*59
$GNGLL,0832.0956,N,07659.6714,E,044915.000,A,D*45
$GNGSA,A,3,02,06,17,19,28,24,30,05,12,,,,1.2,0.7,1.0,1*37
$GNGSA,A,3,02,03,04,05,06,07,,,,,,,1.2,0.7,1.0,4*30
$GNRMC,044915.000,A,0832.0956,N,07659.6714,E,000.0,000.0,260719,,,D*79
$GNVTG,000.0,T,,M,000.0,N,000.0,K,D*16
$GNZDA,044915.000,26,07,2019,00,00*4C
$GNGGA,044916.000,0832.0956,N,07659.6714,E,2,15,0.7,52.7,M,-88.1,M,,0000*5A
$GNGLL,0832.0956,N,07659.6714,E,044916.000,A,D*46
$GNGSA,A,3,02,06,17,19,28,24,30,05,12,,,,1.2,0.7,1.0,1*37
$GNGSA,A,3,02,03,04,05,06,07,,,,,,,1.2,0.7,1.0,4*30
$GNRMC,044916.000,A,0832.0956,N,07659.6714,E,000.0,000.0,260719,,,D*7A
$GNVTG,000.0,T,,M,000.0,N,000.0,K,D*16
$GNZDA,044916.000,26,07,2019,00,00*4F
$GNGGA,044917.000,0832.0956,N,07659.6714,E,2,15,0.7,52.7,M,-88.1,M,,0000*5B
$GNGLL,0832.0956,N,07659.6714,E,044917.000,A,D*47
$GNGSA,A,3,02,06,17,19,28,24,30,05,12,,,,1.2,0.7,1.0,1*37
$GNGSA,A,3,02,03,04,05,06,07,,,,,,,1.2,0.7,1.0,4*30
$GPGSV,4,1,13,02,65,275,43,40,63,250,42,06,53,011,49,28,37,099,47,1*65
$GPGSV,4,2,13,24,29,299,39,05,26,185,39,19,26,019,46,17,20,035,44,1*66
$GPGSV,4,3,13,13,16,209,26,30,10,155,33,12,06,326,33,15,03,239,25,1*62
$GPGSV,4,4,13,41,00,000,49,1*5E
$GIGSV,2,1,07,03,76,151,47,02,67,291,46,05,53,080,49,04,46,122,46,4*70
$GIGSV,2,2,07,06,38,262,39,07,29,100,44,01,00,000,41,4*47
$GNRMC,044917.000,A,0832.0956,N,07659.6714,E,000.0,000.0,260719,,,D*7B
$GNVTG,000.0,T,,M,000.0,N,000.0,K,D*16
$GNZDA,044917.000,26,07,2019,00,00*4E
$PIRNSF,7,4,8B,49,24,18,50,18,74,43,A2,1D,0F,68,9B,47,3A,52,D2,56,8F,F0,69,82,DD,16,68,C3,45,FA,3B,D2,00,00,1C,BD,04,80,0*74
$PIRNSF,3,4,8B,49,24,19,AF,FF,6F,F7,00,12,69,8A,03,F8,97,12,FF,09,FE,98,06,98,A0,3F,80,00,00,00,00,00,00,00,0D,3A,06,2C,0*00
$PIRNSF,2,4,8B,49,24,18,50,19,34,43,82,5B,14,D0,B2,85,D8,30,D1,6E,8B,B4,65,A3,4D,16,E0,CB,06,B8,35,C1,B0,00,09,89,16,34,1*7A
$PIRNSF,5,4,8B,49,24,18,50,18,74,43,A2,1D,0F,68,9B,47,3A,52,D2,56,8F,F0,69,82,DD,16,68,C3,45,FA,3B,D2,00,00,16,96,50,B4,1*74
$PIRNSF,4,4,8B,49,24,19,AF,FF,6F,F7,00,12,69,8A,03,F8,97,12,1F,DF,04,2B,46,98,A0,3D,00,00,00,00,00,00,00,00,10,9E,7A,E0,0*0C
$GNGGA,044918.000,0832.0956,N,07659.6714,E,2,15,0.7,52.7,M,-88.1,M,,0000*54
$GNGLL,0832.0956,N,07659.6714,E,044918.000,A,D*48
$GNGSA,A,3,02,06,17,19,28,24,30,05,12,,,,1.2,0.7,1.0,1*37
$GNGSA,A,3,02,03,04,05,06,07,,,,,,,1.2,0.7,1.0,4*30
$GNRMC,044918.000,A,0832.0956,N,07659.6714,E,000.0,000.0,260719,,,D*74
$GNVTG,000.0,T,,M,000.0,N,000.0,K,D*16
$GNZDA,044918.000,26,07,2019,00,00*41
$PIRNSF,1,4,8B,49,24,79,45,55,55,55,55,55,55,55,55,55,55,55,55,55,55,55,55,55,55,55,55,55,55,55,55,55,55,55,05,74,F0,5C,0*71
$PIRNSF,6,4,8B,49,24,18,50,18,EC,5B,83,3C,1B,68,EB,47,DA,20,C1,1D,88,A4,49,42,6B,15,60,B7,06,3A,35,D1,C8,00,1B,FB,49,2C,0*03
$GNGGA,044919.000,0832.0956,N,07659.6714,E,2,15,0.7,52.7,M,-88.1,M,,0000*55
$GNGLL,0832.0956,N,07659.6714,E,044919.000,A,D*49
$GNGSA,A,3,02,06,17,19,28,24,30,05,12,,,,1.2,0.7,1.0,1*37
$GNGSA,A,3,02,03,04,05,06,07,,,,,,,1.2,0.7,1.0,4*30
$GNRMC,044919.000,A,0832.0956,N,07659.6714,E,000.0,000.0,260719,,,D*75
$GNVTG,000.0,T,,M,000.0,N,000.0,K,D*16
$GNZDA,044919.000,26,07,2019,00,00*40
$GNGGA,044920.000,0832.0956,N,07659.6714,E,2,15,0.7,52.7,M,-88.1,M,,0000*5F
$GNGLL,0832.0956,N,07659.6714,E,044920.000,A,D*43
$GNGSA,A,3,02,06,17,19,28,24,30,05,12,,,,1.2,0.7,1.0,1*37
$GNGSA,A,3,02,03,04,05,06,07,,,,,,,1.2,0.7,1.0,4*30
$GPGSV,4,1,13,02,65,275,43,40,63,250,43,06,53,011,50,28,37,099,47,1*6C
$GPGSV,4,2,13,24,29,299,40,05,27,185,39,19,26,019,46,17,20,035,44,1*69
$GPGSV,4,3,13,13,16,209,27,30,10,155,33,12,06,326,33,15,03,239,25,1*63
$GPGSV,4,4,13,41,00,000,49,1*5E
$GIGSV,2,1,07,03,76,151,47,02,67,291,46,05,53,080,49,04,46,122,46,4*70
$GIGSV,2,2,07,06,38,262,39,07,29,100,44,01,00,000,41,4*47
$GNRMC,044920.000,A,0832.0956,N,07659.6714,E,000.0,000.0,260719,,,D*7F
$GNVTG,000.0,T,,M,000.0,N,000.0,K,D*16
$GNZDA,044920.000,26,07,2019,00,00*4A
$GNGGA,044921.000,0832.0956,N,07659.6714,E,2,15,0.7,52.7,M,-88.1,M,,0000*5E
$GNGLL,0832.0956,N,07659.6714,E,044921.000,A,D*42
$GNGSA,A,3,02,06,17,19,28,24,30,05,12,,,,1.2,0.7,1.0,1*37
$GNGSA,A,3,02,03,04,05,06,07,,,,,,,1.2,0.7,1.0,4*30
$GNRMC,044921.000,A,0832.0956,N,07659.6714,E,000.0,000.0,260719,,,D*7E
$GNVTG,000.0,T,,M,000.0,N,000.0,K,D*16
$GNZDA,044921.000,26,07,2019,00,00*4B
$GNGGA,044922.000,0832.0956,N,07659.6714,E,2,15,0.7,52.7,M,-88.1,M,,0000*5D
$GNGLL,0832.0956,N,07659.6714,E,044922.000,A,D*41
$GNGSA,A,3,02,06,17,19,28,24,30,05,12,,,,1.2,0.7,1.0,1*37
$GNGSA,A,3,02,03,04,05,06,07,,,,,,,1.2,0.7,1.0,4*30
$GNRMC,044922.000,A,0832.0956,N,07659.6714,E,000.0,000.0,260719,,,D*7D
$GNVTG,000.0,T,,M,000.0,N,000.0,K,D*16
$GNZDA,044922.000,26,07,2019,00,00*48
$GNGGA,044923.000,0832.0956,N,07659.6714,E,2,15,0.7,52.7,M,-88.1,M,,0000*5C
$GNGLL,0832.0956,N,07659.6714,E,044923.000,A,D*40
$GNGSA,A,3,02,06,17,19,28,24,30,05,12,,,,1.2,0.7,1.0,1*37
$GNGSA,A,3,02,03,04,05,06,07,,,,,,,1.2,0.7,1.0,4*30
$GPGSV,4,1,13,02,65,275,43,40,63,250,43,06,53,012,50,28,37,099,47,1*6F
$GPGSV,4,2,13,24,29,299,40,05,27,185,40,19,26,019,47,17,20,035,45,1*67
$GPGSV,4,3,13,13,16,209,27,30,10,155,33,12,06,326,33,15,03,239,25,1*63
$GPGSV,4,4,13,41,00,000,50,1*56
$GIGSV,2,1,07,03,76,151,47,02,67,291,46,05,53,080,49,04,46,122,46,4*70
$GIGSV,2,2,07,06,38,262,40,07,29,100,44,01,00,000,41,4*49
$GNRMC,044923.000,A,0832.0956,N,07659.6714,E,000.0,000.0,260719,,,D*7C
$GNVTG,000.0,T,,M,000.0,N,000.0,K,D*16
$GNZDA,044923.000,26,07,2019,00,00*49
$GNGGA,044924.000,0832.0956,N,07659.6714,E,2,15,0.7,52.7,M,-88.1,M,,0000*5B
$GNGLL,0832.0956,N,07659.6714,E,044924.000,A,D*47
$GNGSA,A,3,02,06,17,19,28,24,30,05,12,,,,1.2,0.7,1.0,1*37
$GNGSA,A,3,02,03,04,05,06,07,,,,,,,1.2,0.7,1.0,4*30
$GNRMC,044924.000,A,0832.0956,N,07659.6714,E,000.0,000.0,260719,,,D*7B
$GNVTG,000.0,T,,M,000.0,N,000.0,K,D*16
$GNZDA,044924.000,26,07,2019,00,00*4E
$GNGGA,044925.000,0832.0956,N,07659.6714,E,2,15,0.7,52.7,M,-88.1,M,,0000*5A
$GNGLL,0832.0956,N,07659.6714,E,044925.000,A,D*46
$GNGSA,A,3,02,06,17,19,28,24,30,05,12,,,,1.2,0.7,1.0,1*37
$GNGSA,A,3,02,03,04,05,06,07,,,,,,,1.2,0.7,1.0,4*30
$GNRMC,044925.000,A,0832.0956,N,07659.6714,E,000.0,000.0,260719,,,D*7A
$GNVTG,000.0,T,,M,000.0,N,000.0,K,D*16
$GNZDA,044925.000,26,07,2019,00,00*4F
$GNGGA,044926.000,0832.0956,N,07659.6714,E,2,15,0.7,52.7,M,-88.1,M,,0000*59
$GNGLL,0832.0956,N,07659.6714,E,044926.000,A,D*45
$GNGSA,A,3,02,06,17,19,28,24,30,05,12,,,,1.2,0.7,1.0,1*37
$GNGSA,A,3,02,03,04,05,06,07,,,,,,,1.2,0.7,1.0,4*30
$GPGSV,4,1,13,02,65,275,43,40,63,250,43,06,53,012,50,28,37,099,47,1*6F
$GPGSV,4,2,13,24,29,299,40,05,27,185,39,19,26,019,46,17,20,035,44,1*69
$GPGSV,4,3,13,13,16,209,27,30,10,155,33,12,06,326,34,15,03,239,25,1*64
$GPGSV,4,4,13,41,00,000,50,1*56
$GIGSV,2,1,07,03,76,151,47,02,67,291,46,05,53,080,49,04,46,122,46,4*70
$GIGSV,2,2,07,06,38,262,40,07,29,100,45,01,00,000,41,4*48
$GNRMC,044926.000,A,0832.0956,N,07659.6714,E,000.0,000.0,260719,,,D*79
$GNVTG,000.0,T,,M,000.0,N,000.0,K,D*16
$GNZDA,044926.000,26,07,2019,00,00*4C
$GNGGA,044927.000,0832.0956,N,07659.6714,E,2,15,0.7,52.7,M,-88.1,M,,0000*58
$GNGLL,0832.0956,N,07659.6714,E,044927.000,A,D*44
$GNGSA,A,3,02,06,17,19,28,24,30,05,12,,,,1.2,0.7,1.0,1*37
$GNGSA,A,3,02,03,04,05,06,07,,,,,,,1.2,0.7,1.0,4*30
$GNRMC,044927.000,A,0832.0956,N,07659.6714,E,000.0,000.0,260719,,,D*78
$GNVTG,000.0,T,,M,000.0,N,000.0,K,D*16
$GNZDA,044927.000,26,07,2019,00,00*4D
$GNGGA,044928.000,0832.0956,N,07659.6714,E,2,15,0.7,52.7,M,-88.1,M,,0000*57
$GNGLL,0832.0956,N,07659.6714,E,044928.000,A,D*4B
$GNGSA,A,3,02,06,17,19,28,24,30,05,12,,,,1.2,0.7,1.0,1*37
$GNGSA,A,3,02,03,04,05,06,07,,,,,,,1.2,0.7,1.0,4*30
$GNRMC,044928.000,A,0832.0956,N,07659.6714,E,000.0,000.0,260719,,,D*77
$GNVTG,000.0,T,,M,000.0,N,000.0,K,D*16
$GNZDA,044928.000,26,07,2019,00,00*42
$GNGGA,044929.000,0832.0956,N,07659.6714,E,2,15,0.7,52.7,M,-88.1,M,,0000*56
$GNGLL,0832.0956,N,07659.6714,E,044929.000,A,D*4A
$GNGSA,A,3,02,06,17,19,28,24,30,05,12,,,,1.2,0.7,1.0,1*37
$GNGSA,A,3,02,03,04,05,06,07,,,,,,,1.2,0.7,1.0,4*30
$GPGSV,4,1,13,02,65,275,43,40,63,250,43,06,53,012,49,28,37,099,47,1*67
$GPGSV,4,2,13,24,29,299,41,05,27,185,40,19,26,019,46,17,20,035,44,1*66
$GPGSV,4,3,13,13,16,209,27,30,10,155,33,12,06,326,34,15,03,239,25,1*64
$GPGSV,4,4,13,41,00,000,50,1*56
$GIGSV,2,1,07,03,76,151,47,02,67,291,46,05,53,080,49,04,46,122,45,4*73
$GIGSV,2,2,07,06,38,262,40,07,29,100,44,01,00,000,41,4*49
$GNRMC,044929.000,A,0832.0956,N,07659.6714,E,000.0,000.0,260719,,,D*76
$GNVTG,000.0,T,,M,000.0,N,000.0,K,D*16
$GNZDA,044929.000,26,07,2019,00,00*43
$PIRNSF,6,1,8B,49,24,80,0F,2A,60,F4,07,B4,00,5B,60,FF,00,13,55,B3,F8,C0,C5,C4,31,3F,FD,7F,E3,C1,EC,2D,AF,A8,63,54,8C,7C,1*78
$PIRNSF,7,1,8B,49,24,80,0F,15,E4,FC,15,3C,00,1B,3F,3F,40,17,D0,02,F8,C0,BD,62,58,00,0F,7F,E1,DF,2A,2A,27,B5,11,39,49,48,0*0C
$PIRNSF,3,1,8B,49,24,80,0F,DD,1A,AB,F4,A4,00,1B,3F,3F,40,2E,CC,02,F8,CE,DE,83,36,80,0B,FF,EA,D0,85,C0,1F,BB,62,B3,27,F8,0*0D
$GNGGA,044930.000,0832.0956,N,07659.6714,E,2,15,0.7,52.7,M,-88.1,M,,0000*5E
$GNGLL,0832.0956,N,07659.6714,E,044930.000,A,D*42
$GNGSA,A,3,02,06,17,19,28,24,30,05,12,,,,1.2,0.7,1.0,1*37
$GNGSA,A,3,02,03,04,05,06,07,,,,,,,1.2,0.7,1.0,4*30
$GNRMC,044930.000,A,0832.0956,N,07659.6714,E,000.0,000.0,260719,,,D*7E
$GNVTG,000.0,T,,M,000.0,N,000.0,K,D*16
$GNZDA,044930.000,26,07,2019,00,00*4B
$PIRNSF,2,1,8B,49,24,80,0F,F5,C9,D7,FB,60,00,5B,60,FF,00,09,78,B3,F8,C2,65,DF,2C,80,00,FF,EA,17,A0,8E,2B,E6,E3,A4,6A,6C,1*04
$PIRNSF,5,1,8B,49,24,80,0F,18,EC,58,0E,44,00,5B,60,FF,C0,0A,63,B3,F8,C0,B0,80,93,C0,2C,FF,FB,02,E8,25,70,78,83,A9,A9,A0,0*06
$PIRNSF,4,1,8B,49,24,80,0F,17,83,94,00,1C,00,1B,3F,3F,40,09,4E,02,F8,C1,EF,1F,00,C0,0F,FF,DA,18,E8,71,EB,E0,70,4F,D2,04,0*06
$PIRNSF,1,4,8B,49,24,F9,45,55,55,55,55,55,55,55,55,55,55,55,55,55,55,55,55,55,55,55,55,55,55,55,55,55,55,55,07,3E,F0,5C,0*77
$GNGGA,044931.000,0832.0956,N,07659.6714,E,2,15,0.7,52.7,M,-88.1,M,,0000*5F
$GNGLL,0832.0956,N,07659.6714,E,044931.000,A,D*43
$GNGSA,A,3,02,06,17,19,28,24,30,05,12,,,,1.2,0.7,1.0,1*37
$GNGSA,A,3,02,03,04,05,06,07,,,,,,,1.2,0.7,1.0,4*30
$GNRMC,044931.000,A,0832.0956,N,07659.6714,E,000.0,000.0,260719,,,D*7F
$GNVTG,000.0,T,,M,000.0,N,000.0,K,D*16
$GNZDA,044931.000,26,07,2019,00,00*4A
$GNGGA,044932.000,0832.0956,N,07659.6714,E,2,15,0.7,52.7,M,-88.1,M,,0000*5C
$GNGLL,0832.0956,N,07659.6714,E,044932.000,A,D*40
$GNGSA,A,3,02,06,17,19,28,24,30,05,12,,,,1.2,0.7,1.0,1*37
$GNGSA,A,3,02,03,04,05,06,07,,,,,,,1.2,0.7,1.0,4*30
$GPGSV,4,1,13,02,65,275,43,40,63,250,43,06,53,012,49,28,37,099,48,1*68
$GPGSV,4,2,13,24,29,299,41,05,27,185,40,19,26,019,47,17,20,035,44,1*67
$GPGSV,4,3,13,13,16,209,28,30,10,155,33,12,06,326,34,15,03,239,25,1*6B
$GPGSV,4,4,13,41,00,000,50,1*56
$GIGSV,2,1,07,03,76,151,47,02,67,291,46,05,53,080,49,04,46,122,45,4*73
$GIGSV,2,2,07,06,38,262,39,07,29,100,44,01,00,000,41,4*47
$GNRMC,044932.000,A,0832.0956,N,07659.6714,E,000.0,000.0,260719,,,D*7C
$GNVTG,000.0,T,,M,000.0,N,000.0,K,D*16
$GNZDA,044932.000,26,07,2019,00,00*49
$GNGGA,044933.000,0832.0956,N,07659.6714,E,2,15,0.7,52.7,M,-88.1,M,,0000*5D
$GNGLL,0832.0956,N,07659.6714,E,044933.000,A,D*41
$GNGSA,A,3,02,06,17,19,28,24,30,05,12,,,,1.2,0.7,1.0,1*37
$GNGSA,A,3,02,03,04,05,06,07,,,,,,,1.2,0.7,1.0,4*30
$GNRMC,044933.000,A,0832.0956,N,07659.6714,E,000.0,000.0,260719,,,D*7D
$GNVTG,000.0,T,,M,000.0,N,000.0,K,D*16
$GNZDA,044933.000,26,07,2019,00,00*48
$GNGGA,044934.000,0832.0956,N,07659.6714,E,2,15,0.7,52.7,M,-88.1,M,,0000*5A
$GNGLL,0832.0956,N,07659.6714,E,044934.000,A,D*46
$GNGSA,A,3,02,06,17,19,28,24,30,05,12,,,,1.2,0.7,1.0,1*37
$GNGSA,A,3,02,03,04,05,06,07,,,,,,,1.2,0.7,1.0,4*30
$GNRMC,044934.000,A,0832.0956,N,07659.6714,E,000.0,000.0,260719,,,D*7A
$GNVTG,000.0,T,,M,000.0,N,000.0,K,D*16
$GNZDA,044934.000,26,07,2019,00,00*4F
$GNGGA,044935.000,0832.0956,N,07659.6714,E,2,15,0.7,52.7,M,-88.1,M,,0000*5B
$GNGLL,0832.0956,N,07659.6714,E,044935.000,A,D*47
$GNGSA,A,3,02,06,17,19,28,24,30,05,12,,,,1.2,0.7,1.0,1*37
$GNGSA,A,3,02,03,04,05,06,07,,,,,,,1.2,0.7,1.0,4*30
$GPGSV,4,1,13,02,65,275,43,40,63,250,43,06,53,012,49,28,37,099,47,1*67
$GPGSV,4,2,13,24,29,299,41,05,27,185,38,19,26,019,46,17,20,035,43,1*6E
$GPGSV,4,3,13,13,16,209,29,30,10,155,33,12,06,326,34,15,03,239,25,1*6A
$GPGSV,4,4,13,41,00,000,49,1*5E
$GIGSV,2,1,07,03,76,151,47,02,67,291,46,05,53,080,49,04,46,122,45,4*73
$GIGSV,2,2,07,06,38,262,39,07,29,100,44,01,00,000,41,4*47
$GNRMC,044935.000,A,0832.0956,N,07659.6714,E,000.0,000.0,260719,,,D*7B
$GNVTG,000.0,T,,M,000.0,N,000.0,K,D*16
$GNZDA,044935.000,26,07,2019,00,00*4E
$GNGGA,044936.000,0832.0956,N,07659.6714,E,2,15,0.7,52.7,M,-88.1,M,,0000*58
$GNGLL,0832.0956,N,07659.6714,E,044936.000,A,D*44
$GNGSA,A,3,02,06,17,19,28,24,30,05,12,,,,1.2,0.7,1.0,1*37
$GNGSA,A,3,02,03,04,05,06,07,,,,,,,1.2,0.7,1.0,4*30
$GNRMC,044936.000,A,0832.0956,N,07659.6714,E,000.0,000.0,260719,,,D*78
$GNVTG,000.0,T,,M,000.0,N,000.0,K,D*16
$GNZDA,044936.000,26,07,2019,00,00*4D
$GNGGA,044937.000,0832.0956,N,07659.6714,E,2,15,0.7,52.7,M,-88.1,M,,0000*59
$GNGLL,0832.0956,N,07659.6714,E,044937.000,A,D*45
$GNGSA,A,3,02,06,17,19,28,24,30,05,12,,,,1.2,0.7,1.0,1*37
$GNGSA,A,3,02,03,04,05,06,07,,,,,,,1.2,0.7,1.0,4*30
$GNRMC,044937.000,A,0832.0956,N,07659.6714,E,000.0,000.0,260719,,,D*79
$GNVTG,000.0,T,,M,000.0,N,000.0,K,D*16
$GNZDA,044937.000,26,07,2019,00,00*4C
$GNGGA,044938.000,0832.0956,N,07659.6714,E,2,15,0.7,52.7,M,-88.1,M,,0000*56
$GNGLL,0832.0956,N,07659.6714,E,044938.000,A,D*4A
$GNGSA,A,3,02,06,17,19,28,24,30,05,12,,,,1.2,0.7,1.0,1*37
$GNGSA,A,3,02,03,04,05,06,07,,,,,,,1.2,0.7,1.0,4*30
$GPGSV,4,1,13,02,65,275,43,40,63,250,43,06,53,012,49,28,37,099,47,1*67
$GPGSV,4,2,13,24,29,299,41,05,27,185,39,19,26,019,46,17,20,035,43,1*6F
$GPGSV,4,3,13,13,16,209,29,30,10,155,33,12,06,326,34,15,03,239,27,1*68
$GPGSV,4,4,13,41,00,000,50,1*56
$GIGSV,2,1,07,03,76,151,47,02,67,291,45,05,53,080,49,04,46,122,45,4*70
$GIGSV,2,2,07,06,38,262,39,07,29,100,44,01,00,000,40,4*46
$GNRMC,044938.000,A,0832.0956,N,07659.6714,E,000.0,000.0,260719,,,D*76
$GNVTG,000.0,T,,M,000.0,N,000.0,K,D*16
$GNZDA,044938.000,26,07,2019,00,00*43
$GNGGA,044939.000,0832.0956,N,07659.6714,E,2,15,0.7,52.7,M,-88.1,M,,0000*57
$GNGLL,0832.0956,N,07659.6714,E,044939.000,A,D*4B
$GNGSA,A,3,02,06,17,19,28,24,30,05,12,,,,1.2,0.7,1.0,1*37
$GNGSA,A,3,02,03,04,05,06,07,,,,,,,1.2,0.7,1.0,4*30
$GNRMC,044939.000,A,0832.0956,N,07659.6714,E,000.0,000.0,260719,,,D*77
$GNVTG,000.0,T,,M,000.0,N,000.0,K,D*16
$GNZDA,044939.000,26,07,2019,00,00*42
$GNGGA,044940.000,0832.0956,N,07659.6714,E,2,15,0.7,52.7,M,-88.1,M,,0000*59
$GNGLL,0832.0956,N,07659.6714,E,044940.000,A,D*45
$GNGSA,A,3,02,06,17,19,28,24,30,05,12,,,,1.2,0.7,1.0,1*37
$GNGSA,A,3,02,03,04,05,06,07,,,,,,,1.2,0.7,1.0,4*30
$GNRMC,044940.000,A,0832.0956,N,07659.6714,E,000.0,000.0,260719,,,D*79
$GNVTG,000.0,T,,M,000.0,N,000.0,K,D*16
$GNZDA,044940.000,26,07,2019,00,00*4C
$GNGGA,044941.000,0832.0956,N,07659.6714,E,2,15,0.7,52.7,M,-88.1,M,,0000*58
$GNGLL,0832.0956,N,07659.6714,E,044941.000,A,D*44
$GNGSA,A,3,02,06,17,19,28,24,30,05,12,,,,1.2,0.7,1.0,1*37
$GNGSA,A,3,02,03,04,05,06,07,,,,,,,1.2,0.7,1.0,4*30
$GPGSV,4,1,13,02,65,275,43,40,63,250,43,06,53,012,49,28,37,099,47,1*67
$GPGSV,4,2,13,24,29,299,41,05,27,185,39,19,26,019,46,17,20,035,43,1*6F
$GPGSV,4,3,13,13,16,209,29,30,10,155,32,12,06,326,35,15,03,239,25,1*6A
$GPGSV,4,4,13,41,00,000,49,1*5E
$GIGSV,2,1,07,03,76,151,47,02,67,291,46,05,53,080,49,04,46,122,45,4*73
$GIGSV,2,2,07,06,38,262,39,07,29,100,44,01,00,000,41,4*47
$GNRMC,044941.000,A,0832.0956,N,07659.6714,E,000.0,000.0,260719,,,D*78
$GNVTG,000.0,T,,M,000.0,N,000.0,K,D*16
$GNZDA,044941.000,26,07,2019,00,00*4D
$PIRNSF,4,2,8B,49,25,08,1A,48,3E,55,B3,F0,04,9D,8E,A7,2B,AA,FA,C7,D3,5C,E8,0A,09,7B,8F,57,FF,72,91,4B,B4,52,92,6C,18,50,0*7B
$PIRNSF,6,2,8B,49,25,0B,BD,72,33,29,B6,0C,04,21,A9,4F,2B,AD,42,1B,54,FB,06,CE,1C,B2,F2,6B,FE,F9,90,1D,FF,A0,13,CC,CF,AC,0*7B
$PIRNSF,7,2,8B,49,25,08,79,37,6A,45,B3,F0,01,2B,4B,3F,2B,AA,E8,57,5B,D2,BB,7E,54,88,30,37,FE,B5,90,1E,82,6E,F3,60,5D,C0,0*03
$GNGGA,044942.000,0832.0956,N,07659.6714,E,2,15,0.7,52.7,M,-88.1,M,,0000*5B
$GNGLL,0832.0956,N,07659.6714,E,044942.000,A,D*47
$GNGSA,A,3,02,06,17,19,28,24,30,05,12,,,,1.2,0.7,1.0,1*37
$GNGSA,A,3,02,03,04,05,06,07,,,,,,,1.2,0.7,1.0,4*30
$GNRMC,044942.000,A,0832.0956,N,07659.6714,E,000.0,000.0,260719,,,D*7B
$GNVTG,000.0,T,,M,000.0,N,000.0,K,D*16
$GNZDA,044942.000,26,07,2019,00,00*4E
$PIRNSF,3,2,8B,49,25,0A,96,AB,BB,C9,B3,F0,03,F9,B9,53,2B,AC,74,5A,F5,E2,98,B8,18,AE,B6,E3,FD,39,D0,15,B4,EB,03,88,FB,D0,0*73
$PIRNSF,2,2,8B,49,25,0B,8B,23,F5,B5,B6,0C,04,75,52,67,2B,AB,0C,77,D3,13,A6,66,11,32,1B,BB,FF,71,41,4C,C0,07,41,69,66,F0,0*7A
$PIRNSF,5,2,8B,49,25,0A,3E,10,9C,5D,B6,0C,03,DF,93,D7,2B,AF,9C,3D,D0,67,C1,6E,02,32,CB,13,FF,67,41,4E,3F,89,D2,42,0E,64,0*01
$PIRNSF,1,4,8B,49,25,79,45,55,55,55,55,55,55,55,55,55,55,55,55,55,55,55,55,55,55,55,55,55,55,55,55,55,55,55,07,F9,F0,5C,0*0E
$GNGGA,044943.000,0832.0956,N,07659.6714,E,2,15,0.7,52.7,M,-88.1,M,,0000*5A
$GNGLL,0832.0956,N,07659.6714,E,044943.000,A,D*46
$GNGSA,A,3,02,06,17,19,28,24,30,05,12,,,,1.2,0.7,1.0,1*37
$GNGSA,A,3,02,03,04,05,06,07,,,,,,,1.2,0.7,1.0,4*30
$GNRMC,044943.000,A,0832.0956,N,07659.6714,E,000.0,000.0,260719,,,D*7A
$GNVTG,000.0,T,,M,000.0,N,000.0,K,D*16
$GNZDA,044943.000,26,07,2019,00,00*4F
$GNGGA,044944.000,0832.0956,N,07659.6714,E,2,15,0.7,52.7,M,-88.1,M,,0000*5D
$GNGLL,0832.0956,N,07659.6714,E,044944.000,A,D*41
$GNGSA,A,3,02,06,17,19,28,24,30,05,12,,,,1.2,0.7,1.0,1*37
$GNGSA,A,3,02,03,04,05,06,07,,,,,,,1.2,0.7,1.0,4*30
$GPGSV,4,1,13,02,65,275,43,40,63,250,43,06,53,012,49,28,36,099,47,1*66
$GPGSV,4,2,13,24,29,299,40,05,27,185,38,19,26,019,46,17,20,035,43,1*6F
$GPGSV,4,3,13,13,16,209,28,30,10,155,33,12,06,326,34,15,03,239,26,1*68
$GPGSV,4,4,13,41,00,000,49,1*5E
$GIGSV,2,1,07,03,76,151,47,02,67,291,46,05,53,080,49,04,46,122,46,4*70
$GIGSV,2,2,07,06,38,262,39,07,29,100,44,01,00,000,41,4*47
$GNRMC,044944.000,A,0832.0956,N,07659.6714,E,000.0,000.0,260719,,,D*7D
$GNVTG,000.0,T,,M,000.0,N,000.0,K,D*16
$GNZDA,044944.000,26,07,2019,00,00*48
$GNGGA,044945.000,0832.0956,N,07659.6714,E,2,15,0.7,52.7,M,-88.1,M,,0000*5C
$GNGLL,0832.0956,N,07659.6714,E,044945.000,A,D*40
$GNGSA,A,3,02,06,17,19,28,24,30,05,12,,,,1.2,0.7,1.0,1*37
$GNGSA,A,3,02,03,04,05,06,07,,,,,,,1.2,0.7,1.0,4*30
$GNRMC,044945.000,A,0832.0956,N,07659.6714,E,000.0,000.0,260719,,,D*7C
$GNVTG,000.0,T,,M,000.0,N,000.0,K,D*16
$GNZDA,044945.000,26,07,2019,00,00*49
$GNGGA,044946.000,0832.0956,N,07659.6714,E,2,15,0.7,52.7,M,-88.1,M,,0000*5F
$GNGLL,0832.0956,N,07659.6714,E,044946.000,A,D*43
$GNGSA,A,3,02,06,17,19,28,24,30,05,12,,,,1.2,0.7,1.0,1*37
$GNGSA,A,3,02,03,04,05,06,07,,,,,,,1.2,0.7,1.0,4*30
$GNRMC,044946.000,A,0832.0956,N,07659.6714,E,000.0,000.0,260719,,,D*7F
$GNVTG,000.0,T,,M,000.0,N,000.0,K,D*16
$GNZDA,044946.000,26,07,2019,00,00*4A
$GNGGA,044947.000,0832.0956,N,07659.6714,E,2,15,0.7,52.7,M,-88.1,M,,0000*5E
$GNGLL,0832.0956,N,07659.6714,E,044947.000,A,D*42
$GNGSA,A,3,02,06,17,19,28,24,30,05,12,,,,1.2,0.7,1.0,1*37
$GNGSA,A,3,02,03,04,05,06,07,,,,,,,1.2,0.7,1.0,4*30
$GPGSV,4,1,13,02,65,275,42,40,63,250,42,06,53,012,48,28,36,099,46,1*66
$GPGSV,4,2,13,24,29,299,40,05,27,185,37,19,26,019,45,17,20,035,42,1*62
$GPGSV,4,3,13,13,16,209,27,30,10,155,32,12,06,326,34,15,03,239,25,1*65
$GPGSV,4,4,13,41,00,000,49,1*5E
$GIGSV,2,1,07,03,76,151,47,02,67,291,46,05,53,080,49,04,46,122,45,4*73
$GIGSV,2,2,07,06,38,262,39,07,29,100,44,01,00,000,41,4*47
$GNRMC,044947.000,A,0832.0956,N,07659.6714,E,000.0,000.0,260719,,,D*7E
$GNVTG,000.0,T,,M,000.0,N,000.0,K,D*16
$GNZDA,044947.000,26,07,2019,00,00*4B
$GNGGA,044948.000,0832.0956,N,07659.6714,E,2,15,0.7,52.7,M,-88.1,M,,0000*51
$GNGLL,0832.0956,N,07659.6714,E,044948.000,A,D*4D
$GNGSA,A,3,02,06,17,19,28,24,30,05,12,,,,1.2,0.7,1.0,1*37
$GNGSA,A,3,02,03,04,05,06,07,,,,,,,1.2,0.7,1.0,4*30
$GNRMC,044948.000,A,0832.0956,N,07659.6714,E,000.0,000.0,260719,,,D*71
$GNVTG,000.0,T,,M,000.0,N,000.0,K,D*16
$GNZDA,044948.000,26,07,2019,00,00*44
$GNGGA,044949.000,0832.0956,N,07659.6714,E,2,15,0.7,52.7,M,-88.1,M,,0000*50
$GNGLL,0832.0956,N,07659.6714,E,044949.000,A,D*4C
$GNGSA,A,3,02,06,17,19,28,24,30,05,12,,,,1.2,0.7,1.0,1*37
$GNGSA,A,3,02,03,04,05,06,07,,,,,,,1.2,0.7,1.0,4*30
$GNRMC,044949.000,A,0832.0956,N,07659.6714,E,000.0,000.0,260719,,,D*70
$GNVTG,000.0,T,,M,000.0,N,000.0,K,D*16
$GNZDA,044949.000,26,07,2019,00,00*45
$GNGGA,044950.000,0832.0956,N,07659.6714,E,2,15,0.7,52.7,M,-88.1,M,,0000*58
$GNGLL,0832.0956,N,07659.6714,E,044950.000,A,D*44
$GNGSA,A,3,02,06,17,19,28,24,30,05,12,,,,1.2,0.7,1.0,1*37
$GNGSA,A,3,02,03,04,05,06,07,,,,,,,1.2,0.7,1.0,4*30
$GPGSV,4,1,13,02,65,276,41,40,63,250,42,06,53,012,48,28,36,099,46,1*66
$GPGSV,4,2,13,24,29,299,40,05,27,185,37,19,26,019,45,17,20,035,42,1*62
$GPGSV,4,3,13,13,16,209,27,30,10,155,32,12,06,326,33,15,03,239,24,1*63
$GPGSV,4,4,13,41,00,000,49,1*5E
$GIGSV,2,1,07,03,76,151,47,02,67,291,46,05,53,080,49,04,46,122,45,4*73
$GIGSV,2,2,07,06,38,262,39,07,29,100,44,01,00,000,41,4*47
$GNRMC,044950.000,A,0832.0956,N,07659.6714,E,000.0,000.0,260719,,,D*78
$GNVTG,000.0,T,,M,000.0,N,000.0,K,D*16
$GNZDA,044950.000,26,07,2019,00,00*4D
$GNGGA,044951.000,0832.0956,N,07659.6714,E,2,15,0.7,52.7,M,-88.1,M,,0000*59
$GNGLL,0832.0956,N,07659.6714,E,044951.000,A,D*45
$GNGSA,A,3,02,06,17,19,28,24,30,05,12,,,,1.2,0.7,1.0,1*37
$GNGSA,A,3,02,03,04,05,06,07,,,,,,,1.2,0.7,1.0,4*30
$GNRMC,044951.000,A,0832.0956,N,07659.6714,E,000.0,000.0,260719,,,D*79
$GNVTG,000.0,T,,M,000.0,N,000.0,K,D*16
$GNZDA,044951.000,26,07,2019,00,00*4C
$GNGGA,044952.000,0832.0956,N,07659.6714,E,2,15,0.7,52.7,M,-88.1,M,,0000*5A
$GNGLL,0832.0956,N,07659.6714,E,044952.000,A,D*46
$GNGSA,A,3,02,06,17,19,28,24,30,05,12,,,,1.2,0.7,1.0,1*37
$GNGSA,A,3,02,03,04,05,06,07,,,,,,,1.2,0.7,1.0,4*30
$GNRMC,044952.000,A,0832.0956,N,07659.6714,E,000.0,000.0,260719,,,D*7A
$GNVTG,000.0,T,,M,000.0,N,000.0,K,D*16
$GNZDA,044952.000,26,07,2019,00,00*4F
$GNGGA,044953.000,0832.0956,N,07659.6714,E,2,15,0.7,52.7,M,-88.1,M,,0000*5B
$GNGLL,0832.0956,N,07659.6714,E,044953.000,A,D*47
$GNGSA,A,3,02,06,17,19,28,24,30,05,12,,,,1.2,0.7,1.0,1*37
$GNGSA,A,3,02,03,04,05,06,07,,,,,,,1.2,0.7,1.0,4*30
$GPGSV,4,1,13,02,65,276,42,40,63,250,42,06,53,012,48,28,36,099,46,1*65
$GPGSV,4,2,13,24,29,299,40,05,27,185,37,19,26,019,45,17,20,035,42,1*62
$GPGSV,4,3,13,13,16,209,27,30,10,155,31,12,06,326,34,15,03,239,23,1*60
$GPGSV,4,4,13,41,00,000,49,1*5E
$GIGSV,2,1,07,03,76,151,47,02,67,291,46,05,53,080,49,04,46,122,45,4*73
$GIGSV,2,2,07,06,38,262,39,07,29,100,44,01,00,000,40,4*46
$GNRMC,044953.000,A,0832.0956,N,07659.6714,E,000.0,000.0,260719,,,D*7B
$GNVTG,000.0,T,,M,000.0,N,000.0,K,D*16
$GNZDA,044953.000,26,07,2019,00,00*4E
$PIRNSF,3,3,8B,49,25,90,50,18,34,4D,A2,AD,20,E8,CB,43,FA,15,D0,A6,84,74,1B,C2,1E,32,69,4F,48,5A,32,D1,38,00,0F,65,9A,7C,1*7B
$PIRNSF,2,3,8B,49,25,90,50,19,70,73,A3,2D,16,68,C7,46,1A,3B,D1,DE,8F,34,7D,A3,FD,21,E8,F3,46,9A,30,D1,68,00,0A,1D,65,AC,0*02
$PIRNSF,5,3,8B,49,25,90,50,18,B4,83,A3,DC,19,60,B2,C5,D8,31,C1,AE,8E,74,79,A4,3D,18,68,AF,04,54,24,A1,38,00,14,39,87,0C,1*0F
$PIRNSF,4,3,8B,49,25,91,AF,FF,6F,F7,00,12,69,8A,03,F8,97,12,FF,09,FE,98,06,98,A0,3F,80,00,00,00,00,00,00,00,13,C5,E4,74,0*76
$GNGGA,044954.000,0832.0956,N,07659.6714,E,2,15,0.7,52.7,M,-88.1,M,,0000*5C
$GNGLL,0832.0956,N,07659.6714,E,044954.000,A,D*40
$GNGSA,A,3,02,06,17,19,28,24,30,05,12,,,,1.2,0.7,1.0,1*37
$GNGSA,A,3,02,03,04,05,06,07,,,,,,,1.2,0.7,1.0,4*30
$GNRMC,044954.000,A,0832.0956,N,07659.6714,E,000.0,000.0,260719,,,D*7C
$GNVTG,000.0,T,,M,000.0,N,000.0,K,D*16
$GNZDA,044954.000,26,07,2019,00,00*49
$PIRNSF,6,3,8B,49,25,90,50,19,34,43,82,6B,15,50,B2,85,D8,31,D1,6E,8B,B4,65,A3,4D,17,60,CB,06,98,35,C1,B0,