$GNGGA,074036.000,0832.0932,N,07659.6745,E,0,00,0.0,-36.9,M,0.0,M,,0000*68
$GNGLL,0832.0932,N,07659.6745,E,074036.000,V,N*55
$GNGSA,A,1,,,,,,,,,,,,,0.0,0.0,0.0,1*33
$GPGSV,2,1,08,02,61,314,,05,40,177,,06,39,015,,24,34,282,,1*6D
$GPGSV,2,2,08,28,30,117,,19,23,033,,12,17,332,,13,13,196,,1*62
$GIGSV,1,1,04,03,76,150,,04,43,131,,06,38,262,,07,29,100,,4*7C
$GNRMC,074036.000,V,0832.0932,N,07659.6745,E,000.0,000.0,220619,,,N*6C
$GNVTG,000.0,T,,M,000.0,N,000.0,K,N*1C
$GNZDA,074036.000,22,06,2019,00,00*42
$GNGGA,074036.500,0832.0937,N,07659.6728,E,1,08,0.9,64.7,M,-88.1,M,,0000*5B
$GNGLL,0832.0937,N,07659.6728,E,074036.500,A,A*46
$GPGSA,A,3,05,06,02,24,28,19,12,13,,,,,2.0,0.9,1.8,1*29
$GNRMC,074036.500,A,0832.0937,N,07659.6728,E,000.0,063.1,220619,,,A*7B
$GNVTG,063.1,T,,M,000.0,N,000.0,K,A*17
$GNZDA,074036.500,22,06,2019,00,00*47
$GNGGA,074037.000,0832.0937,N,07659.6728,E,1,08,0.9,63.9,M,-88.1,M,,0000*56
$GNGLL,0832.0937,N,07659.6728,E,074037.000,A,A*42
$GPGSA,A,3,05,06,02,24,28,19,12,13,,,,,2.0,0.9,1.8,1*29
$GNRMC,074037.000,A,0832.0937,N,07659.6728,E,000.0,063.1,220619,,,A*7F
$GNVTG,063.1,T,,M,000.0,N,000.0,K,A*17
$GNZDA,074037.000,22,06,2019,00,00*43
$GNGGA,074038.000,0832.0937,N,07659.6729,E,1,10,0.8,61.7,M,-88.1,M,,0000*5C
$GNGLL,0832.0937,N,07659.6729,E,074038.000,A,A*4C
$GNGSA,A,3,05,06,02,24,28,19,12,13,,,,,1.6,0.8,1.4,1*3F
$GNGSA,A,3,03,07,,,,,,,,,,,1.6,0.8,1.4,4*3A
$GPGSV,3,1,09,41,78,144,41,02,61,314,47,05,40,177,47,06,39,015,44,1*6A
$GPGSV,3,2,09,24,34,282,45,28,30,117,42,19,23,033,39,12,17,332,40,1*6C
$GPGSV,3,3,09,13,13,196,33,1*53
$GIGSV,2,1,07,03,76,150,43,04,43,131,38,06,38,262,40,07,29,100,36,4*71
$GIGSV,2,2,07,02,00,000,43,01,00,000,39,05,00,000,40,4*40
$GNRMC,074038.000,A,0832.0937,N,07659.6729,E,000.0,063.1,220619,,,A*71
$GNVTG,063.1,T,,M,000.0,N,000.0,K,A*17
$GNZDA,074038.000,22,06,2019,00,00*4C
$GNGGA,074039.000,0832.0937,N,07659.6729,E,1,10,0.8,60.2,M,-88.1,M,,0000*59
$GNGLL,0832.0937,N,07659.6729,E,074039.000,A,A*4D
$GNGSA,A,3,05,06,02,24,28,19,12,13,,,,,1.6,0.8,1.4,1*3F
$GNGSA,A,3,03,07,,,,,,,,,,,1.6,0.8,1.4,4*3A
$GNRMC,074039.000,A,0832.0937,N,07659.6729,E,000.0,063.1,220619,,,A*70
$GNVTG,063.1,T,,M,000.0,N,000.0,K,A*17
$GNZDA,074039.000,22,06,2019,00,00*4D
$GNGGA,074040.000,0832.0937,N,07659.6729,E,1,10,0.8,59.1,M,-88.1,M,,0000*5E
$GNGLL,0832.0937,N,07659.6729,E,074040.000,A,A*43
$GNGSA,A,3,05,06,02,24,28,19,12,13,,,,,1.6,0.8,1.4,1*3F
$GNGSA,A,3,03,07,,,,,,,,,,,1.6,0.8,1.4,4*3A
$GNRMC,074040.000,A,0832.0937,N,07659.6729,E,000.0,063.1,220619,,,A*7E
$GNVTG,063.1,T,,M,000.0,N,000.0,K,A*17
$GNZDA,074040.000,22,06,2019,00,00*43
$GNGGA,074041.000,0832.0937,N,07659.6728,E,1,10,0.8,52.3,M,-88.1,M,,0000*57
$GNGLL,0832.0937,N,07659.6728,E,074041.000,A,A*43
$GNGSA,A,3,05,06,02,24,28,19,12,13,,,,,1.6,0.8,1.4,1*3F
$GNGSA,A,3,03,07,,,,,,,,,,,1.6,0.8,1.4,4*3A
$GPGSV,3,1,10,41,78,144,51,40,63,250,41,02,61,314,47,05,40,177,47,1*68
$GPGSV,3,2,10,06,39,015,44,24,34,282,44,28,30,117,42,19,23,033,39,1*6E
$GPGSV,3,3,10,12,17,332,40,13,13,196,34,1*6F
$GIGSV,2,1,07,03,76,150,43,04,43,131,39,06,38,262,40,07,29,100,37,4*71
$GIGSV,2,2,07,02,00,000,43,01,00,000,42,05,00,000,41,4*4D
$GNRMC,074041.000,A,0832.0937,N,07659.6728,E,000.0,063.1,220619,,,A*7E
$GNVTG,063.1,T,,M,000.0,N,000.0,K,A*17
$GNZDA,074041.000,22,06,2019,00,00*42
$GNGGA,074042.000,0832.0937,N,07659.6728,E,1,10,0.8,52.4,M,-88.1,M,,0000*53
$GNGLL,0832.0937,N,07659.6728,E,074042.000,A,A*40
$GNGSA,A,3,05,06,02,24,28,19,12,13,,,,,1.6,0.8,1.4,1*3F
$GNGSA,A,3,03,07,,,,,,,,,,,1.6,0.8,1.4,4*3A
$GNRMC,074042.000,A,0832.0937,N,07659.6728,E,000.0,063.1,220619,,,A*7D
$GNVTG,063.1,T,,M,000.0,N,000.0,K,A*17
$GNZDA,074042.000,22,06,2019,00,00*41
$GNGGA,074043.000,0832.0937,N,07659.6727,E,1,10,0.8,52.8,M,-88.1,M,,0000*51
$GNGLL,0832.0937,N,07659.6727,E,074043.000,A,A*4E
$GNGSA,A,3,05,06,02,24,28,19,12,13,,,,,1.6,0.8,1.4,1*3F
$GNGSA,A,3,03,07,,,,,,,,,,,1.6,0.8,1.4,4*3A
$GNRMC,074043.000,A,0832.0937,N,07659.6727,E,000.0,063.1,220619,,,A*73
$GNVTG,063.1,T,,M,000.0,N,000.0,K,A*17
$GNZDA,074043.000,22,06,2019,00,00*40
$GNGGA,074044.000,0832.0937,N,07659.6727,E,1,10,0.8,52.9,M,-88.1,M,,0000*57
$GNGLL,0832.0937,N,07659.6727,E,074044.000,A,A*49
$GNGSA,A,3,05,06,02,24,28,19,12,13,,,,,1.6,0.8,1.4,1*3F
$GNGSA,A,3,03,07,,,,,,,,,,,1.6,0.8,1.4,4*3A
$GPGSV,3,1,10,41,78,144,51,40,63,250,40,02,61,314,47,05,40,177,46,1*68
$GPGSV,3,2,10,06,39,015,44,24,34,282,44,28,30,117,42,19,23,033,39,1*6E
$GPGSV,3,3,10,12,17,332,40,13,13,196,33,1*68
$GIGSV,2,1,07,03,76,150,42,04,43,131,38,06,38,262,39,07,29,100,36,4*7E
$GIGSV,2,2,07,02,00,000,43,01,00,000,41,05,00,000,40,4*4F
$GNRMC,074044.000,A,0832.0937,N,07659.6727,E,000.0,063.1,220619,,,A*74
$GNVTG,063.1,T,,M,000.0,N,000.0,K,A*17
$GNZDA,074044.000,22,06,2019,00,00*47
$GNGGA,074045.000,0832.0937,N,07659.6727,E,1,10,0.8,52.9,M,-88.1,M,,0000*56
$GNGLL,0832.0937,N,07659.6727,E,074045.000,A,A*48
$GNGSA,A,3,05,06,02,24,28,19,12,13,,,,,1.6,0.8,1.4,1*3F
$GNGSA,A,3,03,07,,,,,,,,,,,1.6,0.8,1.4,4*3A
$GNRMC,074045.000,A,0832.0937,N,07659.6727,E,000.0,063.1,220619,,,A*75
$GNVTG,063.1,T,,M,000.0,N,000.0,K,A*17
$GNZDA,074045.000,22,06,2019,00,00*46
$GNGGA,074046.000,0832.0937,N,07659.6727,E,1,10,0.8,52.9,M,-88.1,M,,0000*55
$GNGLL,0832.0937,N,07659.6727,E,074046.000,A,A*4B
$GNGSA,A,3,05,06,02,24,28,19,12,13,,,,,1.6,0.8,1.4,1*3F
$GNGSA,A,3,03,07,,,,,,,,,,,1.6,0.8,1.4,4*3A
$GNRMC,074046.000,A,0832.0937,N,07659.6727,E,000.0,063.1,220619,,,A*76
$GNVTG,063.1,T,,M,000.0,N,000.0,K,A*17
$GNZDA,074046.000,22,06,2019,00,00*45
$GNGGA,074047.000,0832.0937,N,07659.6727,E,1,10,0.8,52.9,M,-88.1,M,,0000*54
$GNGLL,0832.0937,N,07659.6727,E,074047.000,A,A*4A
$GNGSA,A,3,05,06,02,24,28,19,12,13,,,,,1.6,0.8,1.4,1*3F
$GNGSA,A,3,03,07,,,,,,,,,,,1.6,0.8,1.4,4*3A
$GPGSV,3,1,10,41,78,144,50,40,63,250,40,02,61,314,47,05,40,177,45,1*6A
$GPGSV,3,2,10,06,39,015,44,24,34,282,44,28,30,117,42,19,23,033,39,1*6E
$GPGSV,3,3,10,12,17,332,40,13,13,196,34,1*6F
$GIGSV,2,1,07,03,76,150,43,04,43,131,39,06,38,262,40,07,29,100,38,4*7E
$GIGSV,2,2,07,02,00,000,44,01,00,000,42,05,00,000,41,4*4A
$GNRMC,074047.000,A,0832.0937,N,07659.6727,E,000.0,063.1,220619,,,A*77
$GNVTG,063.1,T,,M,000.0,N,000.0,K,A*17
$GNZDA,074047.000,22,06,2019,00,00*44
$GNGGA,074048.000,0832.0937,N,07659.6727,E,1,10,0.8,52.9,M,-88.1,M,,0000*5B
$GNGLL,0832.0937,N,07659.6727,E,074048.000,A,A*45
$GNGSA,A,3,05,06,02,24,28,19,12,13,,,,,1.6,0.8,1.4,1*3F
$GNGSA,A,3,03,07,,,,,,,,,,,1.6,0.8,1.4,4*3A
$GNRMC,074048.000,A,0832.0937,N,07659.6727,E,000.0,063.1,220619,,,A*78
$GNVTG,063.1,T,,M,000.0,N,000.0,K,A*17
$GNZDA,074048.000,22,06,2019,00,00*4B
$GNGGA,074049.000,0832.0937,N,07659.6727,E,1,10,0.8,52.9,M,-88.1,M,,0000*5A
$GNGLL,0832.0937,N,07659.6727,E,074049.000,A,A*44
$GNGSA,A,3,05,06,02,24,28,19,12,13,,,,,1.6,0.8,1.4,1*3F
$GNGSA,A,3,03,07,,,,,,,,,,,1.6,0.8,1.4,4*3A
$GNRMC,074049.000,A,0832.0937,N,07659.6727,E,000.0,063.1,220619,,,A*79
$GNVTG,063.1,T,,M,000.0,N,000.0,K,A*17
$GNZDA,074049.000,22,06,2019,00,00*4A
$GNGGA,074050.000,0832.0937,N,07659.6727,E,1,10,0.8,52.9,M,-88.1,M,,0000*52
$GNGLL,0832.0937,N,07659.6727,E,074050.000,A,A*4C
$GNGSA,A,3,05,06,02,24,28,19,12,13,,,,,1.6,0.8,1.4,1*3F
$GNGSA,A,3,03,07,,,,,,,,,,,1.6,0.8,1.4,4*3A
$GPGSV,3,1,10,41,78,144,50,40,63,250,40,02,61,314,47,05,40,177,45,1*6A
$GPGSV,3,2,10,06,39,015,44,24,34,282,43,28,30,117,41,19,23,033,39,1*6A
$GPGSV,3,3,10,12,17,332,40,13,13,196,33,1*68
$GIGSV,2,1,07,03,76,150,42,04,43,131,38,06,38,262,39,07,29,100,36,4*7E
$GIGSV,2,2,07,02,00,000,43,01,00,000,40,05,00,000,40,4*4E
$GNRMC,074050.000,A,0832.0937,N,07659.6727,E,000.0,063.1,220619,,,A*71
$GNVTG,063.1,T,,M,000.0,N,000.0,K,A*17
$GNZDA,074050.000,22,06,2019,00,00*42
$GNGGA,074051.000,0832.0937,N,07659.6727,E,1,10,0.8,52.9,M,-88.1,M,,0000*53
$GNGLL,0832.0937,N,07659.6727,E,074051.000,A,A*4D
$GNGSA,A,3,05,06,02,24,28,19,12,13,,,,,1.6,0.8,1.4,1*3F
$GNGSA,A,3,03,07,,,,,,,,,,,1.6,0.8,1.4,4*3A
$GNRMC,074051.000,A,0832.0937,N,07659.6727,E,000.0,063.1,220619,,,A*70
$GNVTG,063.1,T,,M,000.0,N,000.0,K,A*17
$GNZDA,074051.000,22,06,2019,00,00*43
